{"localidade":[{"idlocal":"57","local":"AGENCIA ESTADUAL (ANTIGA COLETORIA)","coordenadas":"-11.014709, -68.748291","lat":"-11.014709","lng":"-68.748291","coords":"-11.014709,-68.748291","qtdvotos":"345","endereco":"RUA GENY ASSIS N. 458","bairro":"CENTRO","cidade":"Brasil\u00e9ia","idcidade":"3","secoes":[{"secao":"4","votosM":"114","votosE":"81"}],"icon":["http://controlemunicipal.tk/assets/img/ic_vermelho.png"],"votosMG":[114],"votosEG":[81]},{"idlocal":"56","local":"CAMARA MUNICIPAL","coordenadas":"-11.014587, -68.748526","lat":"-11.014587","lng":"-68.748526","coords":"-11.014587,-68.748526","qtdvotos":"388","endereco":"RUA GENY ASSIS N. 397","bairro":"CENTRO","cidade":"Brasil\u00e9ia","idcidade":"3","secoes":[{"secao":"3","votosM":"144","votosE":"85"}],"icon":["http://controlemunicipal.tk/assets/img/ic_vermelho.png"],"votosMG":[144],"votosEG":[85]},{"idlocal":"78","local":"CEDUP - CENTRO DE ESTUDOS EDUCA?AO PERMANENTE","coordenadas":"-11.015163, -68.749831","lat":"-11.015163","lng":"-68.749831","coords":"-11.015163,-68.749831","qtdvotos":"143","endereco":"AV. PREFEITO ROLANDO MOREIRA N. 230","bairro":"CENTRO","cidade":"Brasil\u00e9ia","idcidade":"3","secoes":[{"secao":"35","votosM":"144","votosE":"85"}],"icon":["http://controlemunicipal.tk/assets/img/ic_amar.png"],"votosMG":[0],"votosEG":[0]},{"idlocal":"74","local":"CEDUP - CENTRO DE ESTUDOS EDUCACAO PERMANENTE","coordenadas":"-11.015163, -68.749831","lat":"-11.015163","lng":"-68.749831","coords":"-11.015163,-68.749831","qtdvotos":"359","endereco":"AV. PREFEITO ROLANDO MOREIRA N. 230","bairro":"CENTRO","cidade":"Brasil\u00e9ia","idcidade":"3","secoes":[{"secao":"24","votosM":"133","votosE":"59"}],"icon":["http://controlemunicipal.tk/assets/img/ic_vermelho.png"],"votosMG":[133],"votosEG":[59]},{"idlocal":"102","local":"CENTRO CULTURAL SEBASTIAO JOAQUIM DANTAS BARROSO","coordenadas":"-10.998849, -68.750565","lat":"-10.998849","lng":"-68.750565","coords":"-10.998849,-68.750565","qtdvotos":"389","endereco":"RUA VIT?RIA SALVATIERRA N. 1090","bairro":"FERREIRA DA SILVA","cidade":"Brasil\u00e9ia","idcidade":"3","secoes":[{"secao":"88","votosM":"157","votosE":"84"}],"icon":["http://controlemunicipal.tk/assets/img/ic_vermelho.png"],"votosMG":[157],"votosEG":[84]},{"idlocal":"54","local":"CENTRO DE REFERENCIA PARA MULHERES","coordenadas":"-11.011733, -68.740532","lat":"-11.011733","lng":"-68.740532","coords":"-11.011733,-68.740532","qtdvotos":"494","endereco":"RUA JOSE KAIRALA N. 0042","bairro":"CENTRO","cidade":"Brasil\u00e9ia","idcidade":"3","secoes":[{"secao":"1","votosM":"87","votosE":"67"},{"secao":"84","votosM":"79","votosE":"56"}],"icon":["http://controlemunicipal.tk/assets/img/ic_vermelho.png"],"votosMG":[166],"votosEG":[123]},{"idlocal":"113","local":"ESCOLA ANT\u00abNIO CARNEIRO DA SILVA","coordenadas":"-10.951576, -68.794619","lat":"-10.951576","lng":"-68.794619","coords":"-10.951576,-68.794619","qtdvotos":"100","endereco":"BR 317 KM 04 RML DO POLO KM 04","bairro":"ZONA RURAL","cidade":"Brasil\u00e9ia","idcidade":"3","secoes":[{"secao":"113","votosM":"62","votosE":"9"}],"icon":["http://controlemunicipal.tk/assets/img/ic_vermelho.png"],"votosMG":[62],"votosEG":[9]},{"idlocal":"107","local":"ESCOLA ARACI ROCHA DE SOUZA","coordenadas":"-10.868522, -68.851146","lat":"-10.868522","lng":"-68.851146","coords":"-10.868522,-68.851146","qtdvotos":"155","endereco":"BR 317 KM 26 MAIS 26 KM DE RAMAL - COMUNIDADE SAO LUIZ","bairro":"ZONA RURAL","cidade":"Brasil\u00e9ia","idcidade":"3","secoes":[{"secao":"99","votosM":"28","votosE":"53"}],"icon":["http://controlemunicipal.tk/assets/img/ic_azul.png"],"votosMG":[28],"votosEG":[53]},{"idlocal":"109","local":"ESCOLA CHICO MENDES","coordenadas":"-10.921800, -68.755768","lat":"-10.921800","lng":"-68.755768","coords":"-10.921800,-68.755768","qtdvotos":"105","endereco":"BR 317 KM 05 MAIS 32 KM DE RAMAL - COMUNIDADE BOA ESPERANCA","bairro":"ZONA RURAL","cidade":"Brasil\u00e9ia","idcidade":"3","secoes":[{"secao":"101","votosM":"50","votosE":"17"}],"icon":["http://controlemunicipal.tk/assets/img/ic_vermelho.png"],"votosMG":[50],"votosEG":[17]},{"idlocal":"91","local":"ESCOLA ELSON DIAS DANTAS","coordenadas":"-11.011041, -68.759706","lat":"-11.011041","lng":"-68.759706","coords":"-11.011041,-68.759706","qtdvotos":"1191","endereco":"RUA ELSON DIAS DANTAS N. 208","bairro":"LEONARDO BARBOSA","cidade":"Brasil\u00e9ia","idcidade":"3","secoes":[{"secao":"63","votosM":"144","votosE":"76"},{"secao":"75","votosM":"137","votosE":"63"},{"secao":"85","votosM":"152","votosE":"72"},{"secao":"121","votosM":"152","votosE":"72"}],"icon":["http://controlemunicipal.tk/assets/img/ic_vermelho.png"],"votosMG":[433],"votosEG":[211]},{"idlocal":"93","local":"ESCOLA FONTENELE DE CASTRO","coordenadas":"-11.000116, -68.750511","lat":"-11.000116","lng":"-68.750511","coords":"-11.000116,-68.750511","qtdvotos":"2188","endereco":"AV. DR. MANOEL MARINHO MONTE N. 019","bairro":"FERREIRA DA SILVA","cidade":"Brasil\u00e9ia","idcidade":"3","secoes":[{"secao":"74","votosM":"149","votosE":"79"},{"secao":"81","votosM":"156","votosE":"72"},{"secao":"87","votosM":"136","votosE":"78"},{"secao":"91","votosM":"135","votosE":"73"},{"secao":"118","votosM":"137","votosE":"84"},{"secao":"120","votosM":"134","votosE":"64"}],"icon":["http://controlemunicipal.tk/assets/img/ic_vermelho.png"],"votosMG":[847],"votosEG":[450]},{"idlocal":"108","local":"ESCOLA FULGENCIO DE PAIVA","coordenadas":"-10.844772, -69.029610","lat":"-10.844772","lng":"-69.029610","coords":"-10.844772,-69.029610","qtdvotos":"243","endereco":"BR 317 KM 59 MAIS 18 KM DE RAMAL - COMUNIDADE LUA NOVA","bairro":"ZONA RURAL","cidade":"Brasil\u00e9ia","idcidade":"3","secoes":[{"secao":"100","votosM":"99","votosE":"36"}],"icon":["http://controlemunicipal.tk/assets/img/ic_vermelho.png"],"votosMG":[99],"votosEG":[36]},{"idlocal":"62","local":"ESCOLA GETULIO VARGAS","coordenadas":"-11.015859, -68.744427","lat":"-11.015859","lng":"-68.744427","coords":"-11.015859,-68.744427","qtdvotos":"1216","endereco":"AV. RUI LINO N. 031","bairro":"CENTRO","cidade":"Brasil\u00e9ia","idcidade":"3","secoes":[{"secao":"11","votosM":"76","votosE":"36"},{"secao":"12","votosM":"66","votosE":"36"},{"secao":"13","votosM":"80","votosE":"34"},{"secao":"14","votosM":"80","votosE":"32"},{"secao":"15","votosM":"72","votosE":"45"},{"secao":"33","votosM":"91","votosE":"42"}],"icon":["http://controlemunicipal.tk/assets/img/ic_vermelho.png"],"votosMG":[465],"votosEG":[225]},{"idlocal":"59","local":"ESCOLA KAIRALA JOSE KAIRALA","coordenadas":"-11.012526, -68.741120","lat":"-11.012526","lng":"-68.741120","coords":"-11.012526,-68.741120","qtdvotos":"1803","endereco":"RUA JOSE KAIRALA N. 072","bairro":"RAIMUNDO CHAAR","cidade":"Brasil\u00e9ia","idcidade":"3","secoes":[{"secao":"6","votosM":"109","votosE":"63"},{"secao":"7","votosM":"108","votosE":"75"},{"secao":"8","votosM":"87","votosE":"56"},{"secao":"32","votosM":"122","votosE":"54"},{"secao":"41","votosM":"109","votosE":"61"},{"secao":"44","votosM":"105","votosE":"70"}],"icon":["http://controlemunicipal.tk/assets/img/ic_vermelho.png"],"votosMG":[640],"votosEG":[379]},{"idlocal":"106","local":"ESCOLA LAGO","coordenadas":"-10.937180, -68.760338","lat":"-10.937180","lng":"-68.760338","coords":"-10.937180,-68.760338","qtdvotos":"190","endereco":"BR 317 KM 05 MAIS 28 KM DE RAMAL - SERINGAL PORONGABA","bairro":"ZONA RURAL","cidade":"Brasil\u00e9ia","idcidade":"3","secoes":[{"secao":"98","votosM":"101","votosE":"44"}],"icon":["http://controlemunicipal.tk/assets/img/ic_vermelho.png"],"votosMG":[101],"votosEG":[44]},{"idlocal":"90","local":"ESCOLA ODILON PRATAGI","coordenadas":"-11.007457, -68.743216","lat":"-11.007457","lng":"-68.743216","coords":"-11.007457,-68.743216","qtdvotos":"2051","endereco":"RUA 12 DE OUTUBRO N. 205","bairro":"CENTRO","cidade":"Brasil\u00e9ia","idcidade":"3","secoes":[{"secao":"62","votosM":"131","votosE":"80"},{"secao":"67","votosM":"133","votosE":"81"},{"secao":"76","votosM":"149","votosE":"76"},{"secao":"80","votosM":"129","votosE":"83"},{"secao":"83","votosM":"129","votosE":"71"},{"secao":"89","votosM":"134","votosE":"83"}],"icon":["http://controlemunicipal.tk/assets/img/ic_vermelho.png"],"votosMG":[805],"votosEG":[474]},{"idlocal":"85","local":"ESCOLA PADRE ANDRE NATALINO","coordenadas":"-10.952475, -68.867575","lat":"-10.952475","lng":"-68.867575","coords":"-10.952475,-68.867575","qtdvotos":"137","endereco":"KM 13 04 BOCAS, ESTRADA DO PACIFICO","bairro":"ZONA RURAL","cidade":"Brasil\u00e9ia","idcidade":"3","secoes":[{"secao":"54","votosM":"99","votosE":"8"}],"icon":["http://controlemunicipal.tk/assets/img/ic_vermelho.png"],"votosMG":[99],"votosEG":[8]},{"idlocal":"114","local":"ESCOLA PADRE JOSE DE ANCHIETA","coordenadas":"-10.611166, -69.081808","lat":"-10.611166","lng":"-69.081808","coords":"-10.611166,-69.081808","qtdvotos":"88","endereco":"RESERVA CHICO MENDES-BR317 - KM 59 MAIS 60 KM DENTRO DO RAMAL 59","bairro":"ZONA RURAL","cidade":"Brasil\u00e9ia","idcidade":"3","secoes":[{"secao":"117","votosM":"47","votosE":"5"}],"icon":["http://controlemunicipal.tk/assets/img/ic_vermelho.png"],"votosMG":[47],"votosEG":[5]},{"idlocal":"110","local":"ESCOLA PRINCESA IZABEL","coordenadas":"-10.912506, -69.245330","lat":"-10.912506","lng":"-69.245330","coords":"-10.912506,-69.245330","qtdvotos":"185","endereco":"BR 317 KM 84 MAIS 07 KM DE RAMAL - SERINGAL ETELVE","bairro":"ZONA RURAL","cidade":"Brasil\u00e9ia","idcidade":"3","secoes":[{"secao":"102","votosM":"77","votosE":"34"}],"icon":["http://controlemunicipal.tk/assets/img/ic_vermelho.png"],"votosMG":[77],"votosEG":[34]},{"idlocal":"111","local":"ESCOLA PRINCEZA","coordenadas":"-10.866651, -68.940799","lat":"-10.866651","lng":"-68.940799","coords":"-10.866651,-68.940799","qtdvotos":"80","endereco":"BR 317 KM 13 RML DO 13 KM 25 PROJETO PRINCEZA","bairro":"ZONA RURAL","cidade":"Brasil\u00e9ia","idcidade":"3","secoes":[{"secao":"111","votosM":"37","votosE":"30"}],"icon":["http://controlemunicipal.tk/assets/img/ic_vermelho.png"],"votosMG":[37],"votosEG":[30]},{"idlocal":"112","local":"ESCOLA SANTA HELENA","coordenadas":"-10.823027, -69.079780","lat":"-10.823027","lng":"-69.079780","coords":"-10.823027,-69.079780","qtdvotos":"70","endereco":"BR 317 KM 60 RML SANTA HELENA KM 12 SGL MONTEVID\u00f3U","bairro":"ZONA RURAL","cidade":"Brasil\u00e9ia","idcidade":"3","secoes":[{"secao":"112","votosM":"11","votosE":"44"}],"icon":["http://controlemunicipal.tk/assets/img/ic_azul.png"],"votosMG":[11],"votosEG":[44]},{"idlocal":"84","local":"ESCOLA VALDOMIRO FERREIRA BARROSO","coordenadas":"-10.791986, -69.296041","lat":"-10.791986","lng":"-69.296041","coords":"-10.791986,-69.296041","qtdvotos":"290","endereco":"KM 19 RAMAL 13 (CHICO LEAL)","bairro":"ZONA RURAL","cidade":"Brasil\u00e9ia","idcidade":"3","secoes":[{"secao":"53","votosM":"63","votosE":"90"}],"icon":["http://controlemunicipal.tk/assets/img/ic_azul.png"],"votosMG":[63],"votosEG":[90]},{"idlocal":"75","local":"ESCOLA VALERIA BISPO SABALA","coordenadas":"-10.796033, -69.378439","lat":"-10.796033","lng":"-69.378439","coords":"-10.796033,-69.378439","qtdvotos":"445","endereco":"KM 26 ESTRADA DO PACIFICO","bairro":"ZONA RURAL","cidade":"Brasil\u00e9ia","idcidade":"3","secoes":[{"secao":"25","votosM":"120","votosE":"78"},{"secao":"119","votosM":"120","votosE":"78"}],"icon":["http://controlemunicipal.tk/assets/img/ic_vermelho.png"],"votosMG":[120],"votosEG":[78]},{"idlocal":"69","local":"ESCOLA VITORIA SALVATIERRA CESAR","coordenadas":"-11.015542, -68.744205","lat":"-11.015542","lng":"-68.744205","coords":"-11.015542,-68.744205","qtdvotos":"365","endereco":"AV. RUI LINO N. 061","bairro":"CENTRO","cidade":"Brasil\u00e9ia","idcidade":"3","secoes":[{"secao":"18","votosM":"110","votosE":"73"},{"secao":"38","votosM":"73","votosE":"53"}],"icon":["http://controlemunicipal.tk/assets/img/ic_vermelho.png"],"votosMG":[183],"votosEG":[126]},{"idlocal":"67","local":"FUNASA - CONTROLE DE ENDEMIAS","coordenadas":"-11.011838, -68.742585","lat":"-11.011838","lng":"-68.742585","coords":"-11.011838,-68.742585","qtdvotos":"559","endereco":"RUA PEDRO PEREIRA N. 127","bairro":"CENTRO","cidade":"Brasil\u00e9ia","idcidade":"3","secoes":[{"secao":"16","votosM":"111","votosE":"57"},{"secao":"17","votosM":"123","votosE":"51"}],"icon":["http://controlemunicipal.tk/assets/img/ic_vermelho.png"],"votosMG":[234],"votosEG":[108]},{"idlocal":"70","local":"IBAMA - INSTITUTO BRASILEIRO DO MEIO AMBIENTE","coordenadas":"-11.015755, -68.749304","lat":"-11.015755","lng":"-68.749304","coords":"-11.015755,-68.749304","qtdvotos":"309","endereco":"RUA GENY ASSIS N. 259","bairro":"CENTRO","cidade":"Brasil\u00e9ia","idcidade":"3","secoes":[{"secao":"19","votosM":"115","votosE":"64"}],"icon":["http://controlemunicipal.tk/assets/img/ic_vermelho.png"],"votosMG":[115],"votosEG":[64]},{"idlocal":"86","local":"SEAPROF - KM 68","coordenadas":"-10.773752, -69.317471","lat":"-10.773752","lng":"-69.317471","coords":"-10.773752,-69.317471","qtdvotos":"309","endereco":"BR 317 KM 67 ESTRADA DO PACIFICO","bairro":"ZONA RURAL","cidade":"Brasil\u00e9ia","idcidade":"3","secoes":[{"secao":"55","votosM":"92","votosE":"53"}],"icon":["http://controlemunicipal.tk/assets/img/ic_vermelho.png"],"votosMG":[92],"votosEG":[53]},{"idlocal":"58","local":"SEAPROF SEDE","coordenadas":"-11.008929, -68.745320","lat":"-11.008929","lng":"-68.745320","coords":"-11.008929,-68.745320","qtdvotos":"375","endereco":"RUA 02 DE NOVEMBRO N. 101","bairro":"RAIMUNDO CHAAR","cidade":"Brasil\u00e9ia","idcidade":"3","secoes":[{"secao":"5","votosM":"142","votosE":"80"}],"icon":["http://controlemunicipal.tk/assets/img/ic_vermelho.png"],"votosMG":[142],"votosEG":[80]},{"idlocal":"80","local":"SECRETARIA DE ACAO SOCIAL - ANTIGA LBA","coordenadas":"-11.014184, -68.748263","lat":"-11.014184","lng":"-68.748263","coords":"-11.014184,-68.748263","qtdvotos":"215","endereco":"RUA GENY ASSIS N. 466","bairro":"CENTRO","cidade":"Brasil\u00e9ia","idcidade":"3","secoes":[{"secao":"39","votosM":"78","votosE":"40"}],"icon":["http://controlemunicipal.tk/assets/img/ic_vermelho.png"],"votosMG":[78],"votosEG":[40]},{"idlocal":"55","local":"SESC-SERVICO SOCIAL DO COMERCIO","coordenadas":"-10.999067, -68.753907","lat":"-10.999067","lng":"-68.753907","coords":"-10.999067,-68.753907","qtdvotos":"1334","endereco":"RUA JOAO JOVINO DE OLIVEIRA S\/N","bairro":"ELDORADO","cidade":"Brasil\u00e9ia","idcidade":"3","secoes":[{"secao":"2","votosM":"144","votosE":"71"},{"secao":"20","votosM":"143","votosE":"77"},{"secao":"94","votosM":"149","votosE":"73"},{"secao":"122","votosM":"126","votosE":"64"}],"icon":["http://controlemunicipal.tk/assets/img/ic_vermelho.png"],"votosMG":[562],"votosEG":[285]},{"idlocal":"87","local":"UBS-UNIDADE BASICA DE SAUDE PEDRO OLIVEIRA DE SOUZA","coordenadas":"-10.803235, -69.366037","lat":"-10.803235","lng":"-69.366037","coords":"-10.803235,-69.366037","qtdvotos":"388","endereco":"BR 317 KM 68","bairro":"ZONA RURAL","cidade":"Brasil\u00e9ia","idcidade":"3","secoes":[{"secao":"56","votosM":"75","votosE":"58"},{"secao":"57","votosM":"80","votosE":"57"}],"icon":["http://controlemunicipal.tk/assets/img/ic_vermelho.png"],"votosMG":[155],"votosEG":[115]},{"idlocal":"72","local":"UFAC","coordenadas":"-10.961480, -68.813043","lat":"-10.961480","lng":"-68.813043","coords":"-10.961480,-68.813043","qtdvotos":"418","endereco":"BR 317 KM 10","bairro":"ZONA RURAL","cidade":"Brasil\u00e9ia","idcidade":"3","secoes":[{"secao":"21","votosM":"96","votosE":"85"},{"secao":"23","votosM":"96","votosE":"85"},{"secao":"58","votosM":"96","votosE":"85"}],"icon":["http://controlemunicipal.tk/assets/img/ic_vermelho.png"],"votosMG":[96],"votosEG":[85]},{"idlocal":"83","local":"USF-JOSE MARIA DE SOUZA SANTOS","coordenadas":"-11.013663, -68.747961","lat":"-11.013663","lng":"-68.747961","coords":"-11.013663,-68.747961","qtdvotos":"204","endereco":"RUA GENY ASSIS","bairro":"CENTRO","cidade":"Brasil\u00e9ia","idcidade":"3","secoes":[{"secao":"45","votosM":"114","votosE":"83"}],"icon":["http://controlemunicipal.tk/assets/img/ic_vermelho.png"],"votosMG":[114],"votosEG":[83]}]}