{"localidade":[{"idlocal":"673","local":"ESCOLA ALFREDO SALES","coordenadas":"-8.539043, -72.804222","lat":"-8.539043","lng":"-72.804222","coords":"-8.539043,-72.804222","qtdvotos":"156","endereco":"RIO GRAJAU - GRAJAU","bairro":"ZONA RURAL","cidade":"Porto Walter","idcidade":"15","secoes":[{"secao":"320","votosM":"57","votosE":"61"}],"icon":["http:\/\/controlemunicipal.tk\/assets\/img\/ic_azul.png"],"votosMG":[57],"votosEG":[61]},{"idlocal":"655","local":"ESCOLA BORGES DE AQUINO","coordenadas":"-8.268301, -72.742113","lat":"-8.268301","lng":"-72.742113","coords":"-8.268301,-72.742113","qtdvotos":"1061","endereco":"RUA BEIRA RIO, S\/N","bairro":"CENTRO","cidade":"Porto Walter","idcidade":"15","secoes":[{"secao":"77","votosM":"108","votosE":"97"},{"secao":"115","votosM":"126","votosE":"106"},{"secao":"145","votosM":"136","votosE":"103"}],"icon":["http:\/\/controlemunicipal.tk\/assets\/img\/ic_vermelho.png"],"votosMG":[370],"votosEG":[306]},{"idlocal":"675","local":"ESCOLA CASTELO BRANCO","coordenadas":"-8.213446, -72.955471","lat":"-8.213446","lng":"-72.955471","coords":"-8.213446,-72.955471","qtdvotos":"99","endereco":"COMUNIDADE FORMIGUEIRO - IGARAPE CUMPRIDO","bairro":"ZONA RURAL","cidade":"Porto Walter","idcidade":"15","secoes":[{"secao":"325","votosM":"37","votosE":"35"}],"icon":["http:\/\/controlemunicipal.tk\/assets\/img\/ic_vermelho.png"],"votosMG":[37],"votosEG":[35]},{"idlocal":"671","local":"ESCOLA CHATEAUBRIAND BEZERRA","coordenadas":"-8.255079, -72.720602","lat":"-8.255079","lng":"-72.720602","coords":"-8.255079,-72.720602","qtdvotos":"84","endereco":"ESTIRAO AZUL - RIO CRUZEIRO DO VALE","bairro":"ZONA RURAL","cidade":"Porto Walter","idcidade":"15","secoes":[{"secao":"314","votosM":"41","votosE":"23"}],"icon":["http:\/\/controlemunicipal.tk\/assets\/img\/ic_vermelho.png"],"votosMG":[41],"votosEG":[23]},{"idlocal":"670","local":"ESCOLA FRANCISCO DAS CHAGAS","coordenadas":"-8.416426, -72.881830","lat":"-8.416426","lng":"-72.881830","coords":"-8.416426,-72.881830","qtdvotos":"65","endereco":"RIO OURO PRETO - COMUNIDADE IRACEMA","bairro":"ZONA RURAL","cidade":"Porto Walter","idcidade":"15","secoes":[{"secao":"313","votosM":"34","votosE":"16"}],"icon":["http:\/\/controlemunicipal.tk\/assets\/img\/ic_vermelho.png"],"votosMG":[34],"votosEG":[16]},{"idlocal":"658","local":"ESCOLA ISAURA AMORIM DE LIMA","coordenadas":"-8.267131, -72.742519","lat":"-8.267131","lng":"-72.742519","coords":"-8.267131,-72.742519","qtdvotos":"729","endereco":"RUA ALFREDO SALES, S\/N","bairro":"CENTRO","cidade":"Porto Walter","idcidade":"15","secoes":[{"secao":"80","votosM":"133","votosE":"110"},{"secao":"146","votosM":"127","votosE":"99"}],"icon":["http:\/\/controlemunicipal.tk\/assets\/img\/ic_vermelho.png"],"votosMG":[260],"votosEG":[209]},{"idlocal":"674","local":"ESCOLA JOSE DE MELO BARRETO","coordenadas":"-8.516756, -72.846277","lat":"-8.516756","lng":"-72.846277","coords":"-8.516756,-72.846277","qtdvotos":"94","endereco":"COMUNIDADE 3 BOCAS - RIO DAS MINAS","bairro":"ZONA RURAL","cidade":"Porto Walter","idcidade":"15","secoes":[{"secao":"321","votosM":"44","votosE":"35"}],"icon":["http:\/\/controlemunicipal.tk\/assets\/img\/ic_vermelho.png"],"votosMG":[44],"votosEG":[35]},{"idlocal":"669","local":"ESCOLA LIMA DO VALE","coordenadas":"-8.249557, -72.727749","lat":"-8.249557","lng":"-72.727749","coords":"-8.249557,-72.727749","qtdvotos":"123","endereco":"ALDEIA RAIMUNDO DO VALE - RIO CRUZEIRO DO VALE","bairro":"ZONA RURAL","cidade":"Porto Walter","idcidade":"15","secoes":[{"secao":"311","votosM":"77","votosE":"28"}],"icon":["http:\/\/controlemunicipal.tk\/assets\/img\/ic_vermelho.png"],"votosMG":[77],"votosEG":[28]},{"idlocal":"656","local":"ESCOLA MANOEL MOREIRA PINHEIRO","coordenadas":"-8.263648, -72.743808","lat":"-8.263648","lng":"-72.743808","coords":"-8.263648,-72.743808","qtdvotos":"1058","endereco":"RUA MAMED CAMELI, S\/N","bairro":"CENTRO","cidade":"Porto Walter","idcidade":"15","secoes":[{"secao":"78","votosM":"130","votosE":"117"},{"secao":"79","votosM":"136","votosE":"98"},{"secao":"144","votosM":"135","votosE":"99"}],"icon":["http:\/\/controlemunicipal.tk\/assets\/img\/ic_vermelho.png"],"votosMG":[401],"votosEG":[314]},{"idlocal":"665","local":"ESCOLA NOSSA SENHORA APARECIDA","coordenadas":"-8.468750, -72.864365","lat":"-8.468750","lng":"-72.864365","coords":"-8.468750,-72.864365","qtdvotos":"559","endereco":"SERINGAL REFORMA - RIO JURUA","bairro":"ZONA RURAL","cidade":"Porto Walter","idcidade":"15","secoes":[{"secao":"166","votosM":"66","votosE":"49"},{"secao":"202","votosM":"59","votosE":"58"},{"secao":"286","votosM":"19","votosE":"14"}],"icon":["http:\/\/controlemunicipal.tk\/assets\/img\/ic_vermelho.png"],"votosMG":[144],"votosEG":[121]},{"idlocal":"664","local":"ESCOLA SAO JOSE","coordenadas":"-8.250016, -72.719212","lat":"-8.250016","lng":"-72.719212","coords":"-8.250016,-72.719212","qtdvotos":"372","endereco":"COMUNIDADE MORORO - RIO CRUZEIRO DO VALE","bairro":"ZONA RURAL","cidade":"Porto Walter","idcidade":"15","secoes":[{"secao":"164","votosM":"78","votosE":"86"},{"secao":"245","votosM":"41","votosE":"46"}],"icon":["http:\/\/controlemunicipal.tk\/assets\/img\/ic_azul.png"],"votosMG":[119],"votosEG":[132]},{"idlocal":"660","local":"ESCOLA SEBASTIAO CORREIA LIMA","coordenadas":"-8.265944, -72.746740","lat":"-8.265944","lng":"-72.746740","coords":"-8.265944,-72.746740","qtdvotos":"356","endereco":"RUA JOSE ESTEPHAN BARBARY, S\/N","bairro":"CENTRO","cidade":"Porto Walter","idcidade":"15","secoes":[{"secao":"132","votosM":"106","votosE":"102"}],"icon":["http:\/\/controlemunicipal.tk\/assets\/img\/ic_vermelho.png"],"votosMG":[106],"votosEG":[102]},{"idlocal":"672","local":"ESCOLA VENCESLAU BRAZ","coordenadas":"-8.349340, -72.759450","lat":"-8.349340","lng":"-72.759450","coords":"-8.349340,-72.759450","qtdvotos":"112","endereco":"COMUNIDADE VITORIA RIO JURUA","bairro":"ZONA RURAL","cidade":"Porto Walter","idcidade":"15","secoes":[{"secao":"316","votosM":"38","votosE":"59"}],"icon":["http:\/\/controlemunicipal.tk\/assets\/img\/ic_azul.png"],"votosMG":[38],"votosEG":[59]}]}