{"localidade":[{"idlocal":"165","local":"C?MARA MUNICIPAL","coordenadas":"-10.575908, -67.676913","lat":"-10.575908","lng":"-67.676913","coords":"-10.575908,-67.676913","qtdvotos":"288","endereco":"AVENIDA GOVERNADOR EDMUNDO PINTO ","bairro":"CENTRO","cidade":"Capixaba","idcidade":"5","secoes":[{"secao":"171, 176, 197","votosM":"63","votosE":"160"}],"icon":["http://controlemunicipal.tk/assets/img/ic_azul.png"],"votosMG":[63],"votosEG":[160]},{"idlocal":"155","local":"CAMARA MUNICIPAL","coordenadas":"-10.575908, -67.676913","lat":"-10.575908","lng":"-67.676913","coords":"-10.575908,-67.676913","qtdvotos":"232","endereco":"AVENIDA GOVERNADOR EDMUNDO PINTO ","bairro":"CENTRO","cidade":"Capixaba","idcidade":"5","secoes":[{"secao":"136","votosM":"65","votosE":"116"}],"icon":["http://controlemunicipal.tk/assets/img/ic_azul.png"],"votosMG":[65],"votosEG":[116]},{"idlocal":"156","local":"CENTRO DE DIFUS\u00cdO TECNOLOGICA","coordenadas":"-10.575269, -67.674991","lat":"-10.575269","lng":"-67.674991","coords":"-10.575269,-67.674991","qtdvotos":"371","endereco":"RUA OSSIMAR TESSINARI","bairro":"CONQUISTA","cidade":"Capixaba","idcidade":"5","secoes":[{"secao":"139, 190","votosM":"111","votosE":"165"}],"icon":["http://controlemunicipal.tk/assets/img/ic_azul.png"],"votosMG":[111],"votosEG":[165]},{"idlocal":"169","local":"CENTRO DE FLORESTANIA","coordenadas":"-10.570299, -67.675794","lat":"-10.570299","lng":"-67.675794","coords":"-10.570299,-67.675794","qtdvotos":"363","endereco":"AVENIDA GOVERNADOR EDMUNDO PINTO - PROX. PMAC","bairro":"CENTRO","cidade":"Capixaba","idcidade":"5","secoes":[{"secao":"194","votosM":"103","votosE":"181"}],"icon":["http://controlemunicipal.tk/assets/img/ic_azul.png"],"votosMG":[103],"votosEG":[181]},{"idlocal":"144","local":"ESCOLA ARGENTINA PEREIRA FEITOSA","coordenadas":"-10.572005, -67.675682","lat":"-10.572005","lng":"-67.675682","coords":"-10.572005,-67.675682","qtdvotos":"1172","endereco":"AVENIDA PARANA S\/N ","bairro":"CENTRO","cidade":"Capixaba","idcidade":"5","secoes":[{"secao":"105","votosM":"78","votosE":"133"},{"secao":"106","votosM":"71","votosE":"135"},{"secao":"107","votosM":"74","votosE":"143"},{"secao":"108","votosM":"75","votosE":"133"}],"icon":["http://controlemunicipal.tk/assets/img/ic_azul.png"],"votosMG":[298],"votosEG":[544]},{"idlocal":"161","local":"ESCOLA ENF. M. DE NAZARE DA CRUZ","coordenadas":"-10.582930, -67.838615","lat":"-10.582930","lng":"-67.838615","coords":"-10.582930,-67.838615","qtdvotos":"160","endereco":"RAMAL DO BARRIGA KM 18 DPAD ALCOBRAS ","bairro":"ZONA RURAL","cidade":"Capixaba","idcidade":"5","secoes":[{"secao":"150","votosM":"71","votosE":"53"}],"icon":["http://controlemunicipal.tk/assets/img/ic_vermelho.png"],"votosMG":[71],"votosEG":[53]},{"idlocal":"159","local":"ESCOLA INDEPENDENCIA","coordenadas":"-10.632986, -67.756730","lat":"-10.632986","lng":"-67.756730","coords":"-10.632986,-67.756730","qtdvotos":"243","endereco":"RAMAL CAJAZEIRA KM 14","bairro":"ZONA RURAL","cidade":"Capixaba","idcidade":"5","secoes":[{"secao":"147","votosM":"70","votosE":"127"}],"icon":["http://controlemunicipal.tk/assets/img/ic_azul.png"],"votosMG":[70],"votosEG":[127]},{"idlocal":"167","local":"ESCOLA JOSE ALVES DA SILVA","coordenadas":"-10.489533, -67.683017","lat":"-10.489533","lng":"-67.683017","coords":"-10.489533,-67.683017","qtdvotos":"96","endereco":"BR 317 KM 55 RAMAL DO OLIVEIRA KM 13 SER. CAPATARA","bairro":"ZONA RURAL","cidade":"Capixaba","idcidade":"5","secoes":[{"secao":"191","votosM":"35","votosE":"28"}],"icon":["http://controlemunicipal.tk/assets/img/ic_vermelho.png"],"votosMG":[35],"votosEG":[28]},{"idlocal":"160","local":"ESCOLA JOSE SILVEIRA","coordenadas":"-10.374066, -67.791202","lat":"-10.374066","lng":"-67.791202","coords":"-10.374066,-67.791202","qtdvotos":"124","endereco":"BR 317 KM 25 RAMAL ANTONIO COSTA KM 12","bairro":"ZONA RURAL","cidade":"Capixaba","idcidade":"5","secoes":[{"secao":"148","votosM":"34","votosE":"58"}],"icon":["http://controlemunicipal.tk/assets/img/ic_azul.png"],"votosMG":[34],"votosEG":[58]},{"idlocal":"170","local":"ESCOLA MARIA FERNANDES DE AMORIM","coordenadas":"-10.380938, -67.916672","lat":"-10.380938","lng":"-67.916672","coords":"-10.380938,-67.916672","qtdvotos":"73","endereco":"AC 40 KM 116 RAMAL ZE DO COCO KM 18 MARGENS DO RIO ACRE PA VILA NOVA","bairro":"ZONA RURAL","cidade":"Capixaba","idcidade":"5","secoes":[{"secao":"196","votosM":"22","votosE":"34"}],"icon":["http://controlemunicipal.tk/assets/img/ic_azul.png"],"votosMG":[22],"votosEG":[34]},{"idlocal":"163","local":"ESCOLA MARIETA FREIRE","coordenadas":"-10.551901, -67.678077","lat":"-10.551901","lng":"-67.678077","coords":"-10.551901,-67.678077","qtdvotos":"281","endereco":"VILA HORTIGRANJEIRA","bairro":"ZONA RURAL","cidade":"Capixaba","idcidade":"5","secoes":[{"secao":"163","votosM":"130","votosE":"107"}],"icon":["http://controlemunicipal.tk/assets/img/ic_vermelho.png"],"votosMG":[130],"votosEG":[107]},{"idlocal":"168","local":"ESCOLA MUN. LIMEIRA","coordenadas":"-10.611076, -67.820293","lat":"-10.611076","lng":"-67.820293","coords":"-10.611076,-67.820293","qtdvotos":"89","endereco":"BR 317 KM 100","bairro":"ZONA RURAL","cidade":"Capixaba","idcidade":"5","secoes":[{"secao":"193","votosM":"50","votosE":"32"}],"icon":["http://controlemunicipal.tk/assets/img/ic_vermelho.png"],"votosMG":[50],"votosEG":[32]},{"idlocal":"148","local":"ESCOLA NAIR SOMBRA","coordenadas":"-10.577081, -67.676355","lat":"-10.577081","lng":"-67.676355","coords":"-10.577081,-67.676355","qtdvotos":"1225","endereco":"TRAVESSA BENEVENUTE S\/N","bairro":"CENTRO","cidade":"Capixaba","idcidade":"5","secoes":[{"secao":"109","votosM":"92","votosE":"160"},{"secao":"110","votosM":"94","votosE":"155"},{"secao":"120","votosM":"74","votosE":"151"},{"secao":"122","votosM":"100","votosE":"147"}],"icon":["http://controlemunicipal.tk/assets/img/ic_azul.png"],"votosMG":[360],"votosEG":[613]},{"idlocal":"152","local":"ESCOLA NOELIA MARIA ALVES DE SOUZA","coordenadas":"-10.573931, -67.677011","lat":"-10.573931","lng":"-67.677011","coords":"-10.573931,-67.677011","qtdvotos":"1185","endereco":"TRAVESSA CECILIA BOA VENTURA S\/N","bairro":"CENTRO","cidade":"Capixaba","idcidade":"5","secoes":[{"secao":"129","votosM":"94","votosE":"149"},{"secao":"133","votosM":"71","votosE":"116"},{"secao":"170","votosM":"85","votosE":"149"},{"secao":"177","votosM":"88","votosE":"142"}],"icon":["http://controlemunicipal.tk/assets/img/ic_azul.png"],"votosMG":[338],"votosEG":[556]},{"idlocal":"154","local":"ESCOLA NOVA ESPERAN?A","coordenadas":"-10.477609, -67.686077","lat":"-10.477609","lng":"-67.686077","coords":"-10.477609,-67.686077","qtdvotos":"298","endereco":"BR 317 KM 25 RML ANTONIO COSTA KM 12","bairro":"ZONA RURAL","cidade":"Capixaba","idcidade":"5","secoes":[{"secao":"135","votosM":"96","votosE":"136"}],"icon":["http://controlemunicipal.tk/assets/img/ic_azul.png"],"votosMG":[96],"votosEG":[136]},{"idlocal":"157","local":"ESCOLA NOVA ESPERANCA","coordenadas":"-10.510770, -67.646578","lat":"-10.510770","lng":"-67.646578","coords":"-10.510770,-67.646578","qtdvotos":"302","endereco":"BR 364 KM 25 RML ANTONIO COSTA KM 12","bairro":"ZONA RURAL","cidade":"Capixaba","idcidade":"5","secoes":[{"secao":"140","votosM":"99","votosE":"146"}],"icon":["http://controlemunicipal.tk/assets/img/ic_azul.png"],"votosMG":[99],"votosEG":[146]},{"idlocal":"162","local":"ESCOLA SAO FRANCISCO","coordenadas":"-10.350425, -67.872949","lat":"-10.350425","lng":"-67.872949","coords":"-10.350425,-67.872949","qtdvotos":"160","endereco":"RESER. SAO LUIZ REMANSO  MARGENS RIO ACRE","bairro":"ZONA RURAL","cidade":"Capixaba","idcidade":"5","secoes":[{"secao":"158","votosM":"55","votosE":"93"}],"icon":["http://controlemunicipal.tk/assets/img/ic_azul.png"],"votosMG":[55],"votosEG":[93]},{"idlocal":"158","local":"PRE-ESCOLA MUNDO ENCANTADO","coordenadas":"-10.572374, -67.675271","lat":"-10.572374","lng":"-67.675271","coords":"-10.572374,-67.675271","qtdvotos":"279","endereco":"AVENIDA BRASIL S\/N","bairro":"CENTRO","cidade":"Capixaba","idcidade":"5","secoes":[{"secao":"145","votosM":"97","votosE":"124"}],"icon":["http://controlemunicipal.tk/assets/img/ic_azul.png"],"votosMG":[97],"votosEG":[124]}]}