{"localidade":[{"idlocal":"1511","local":"CAMARA MUNICIPAL ","coordenadas":"-10.155480, -67.738047","lat":"-10.155480","lng":"-67.738047","coords":"-10.155480,-67.738047","qtdvotos":"296","endereco":"RUA TRES DE MAIO, 569","bairro":"CENTRO","cidade":"Senador Guiomard","idcidade":"20","secoes":[{"secao":"25","votosM":"99","votosE":"113"}],"icon":["http://controlemunicipal.tk/assets/img/ic_azul.png"],"votosMG":[99],"votosEG":[113]},{"idlocal":"1553","local":"CENTRO DE ATENDIMENTO A CRIANCA E ADOLESCENTE - CEMAIA ","coordenadas":"-10.158331, -67.737105","lat":"-10.158331","lng":"-67.737105","coords":"-10.158331,-67.737105","qtdvotos":"363","endereco":"RUA TRES DE MAIO","bairro":"CENTRO","cidade":"Senador Guiomard","idcidade":"20","secoes":[{"secao":"127, 213","votosM":"118","votosE":"145"}],"icon":["http://controlemunicipal.tk/assets/img/ic_azul.png"],"votosMG":[118],"votosEG":[145]},{"idlocal":"1554","local":"CENTRO DE REFERENCIA ASSISTENCIA SOCIAL - CRAS ","coordenadas":"-10.153475, -67.735764","lat":"-10.153475","lng":"-67.735764","coords":"-10.153475,-67.735764","qtdvotos":"273","endereco":"RUA VISCONDE DE MAUA, 250","bairro":"CENTRO","cidade":"Senador Guiomard","idcidade":"20","secoes":[{"secao":"130, 214","votosM":"103","votosE":"111"}],"icon":["http://controlemunicipal.tk/assets/img/ic_azul.png"],"votosMG":[103],"votosEG":[111]},{"idlocal":"1514","local":"COLEGIO 15 DE JUNHO ","coordenadas":"-10.145831, -67.739181","lat":"-10.145831","lng":"-67.739181","coords":"-10.145831,-67.739181","qtdvotos":"1901","endereco":"RUA FELINTO MULLER","bairro":"TRIUNFO","cidade":"Senador Guiomard","idcidade":"20","secoes":[{"secao":"28","votosM":"111","votosE":"121"},{"secao":"30","votosM":"104","votosE":"131"},{"secao":"39","votosM":"98","votosE":"126"},{"secao":"44","votosM":"96","votosE":"143"},{"secao":"62","votosM":"98","votosE":"138"},{"secao":"97","votosM":"105","votosE":"137"}],"icon":["http://controlemunicipal.tk/assets/img/ic_azul.png"],"votosMG":[612],"votosEG":[796]},{"idlocal":"1518","local":"COLEGIO SANTO IZIDORO ","coordenadas":"-10.154584, -67.735481","lat":"-10.154584","lng":"-67.735481","coords":"-10.154584,-67.735481","qtdvotos":"1333","endereco":"RUA CLETO REINALDO RAMOS ","bairro":"CENTRO","cidade":"Senador Guiomard","idcidade":"20","secoes":[{"secao":"32","votosM":"85","votosE":"77"},{"secao":"40","votosM":"68","votosE":"80"},{"secao":"57","votosM":"64","votosE":"101"},{"secao":"63","votosM":"88","votosE":"78"},{"secao":"68","votosM":"73","votosE":"89"},{"secao":"118","votosM":"90","votosE":"115"}],"icon":["http://controlemunicipal.tk/assets/img/ic_azul.png"],"votosMG":[468],"votosEG":[540]},{"idlocal":"1562","local":"ESCOLA BOA UNIAO","coordenadas":"-10.051977, -67.760858","lat":"-10.051977","lng":"-67.760858","coords":"-10.051977,-67.760858","qtdvotos":"204","endereco":"ROD. AC 40 KM 10 RAMAL DA GARAPEIRA","bairro":"ZONA RURAL","cidade":"Senador Guiomard","idcidade":"20","secoes":[{"secao":"166","votosM":"67","votosE":"85"}],"icon":["http://controlemunicipal.tk/assets/img/ic_azul.png"],"votosMG":[67],"votosEG":[85]},{"idlocal":"1557","local":"ESCOLA BOM DESTINO - PSDA BONAL ","coordenadas":"-9.975826, -67.177109","lat":"-9.975826","lng":"-67.177109","coords":"-9.975826,-67.177109","qtdvotos":"325","endereco":"BR 364 KM 76 RAMAL BONAL KM 1,5 ","bairro":"ZONA RURAL","cidade":"Senador Guiomard","idcidade":"20","secoes":[{"secao":"149","votosM":"145","votosE":"141"}],"icon":["http://controlemunicipal.tk/assets/img/ic_vermelho.png"],"votosMG":[145],"votosEG":[141]},{"idlocal":"1521","local":"ESCOLA BRIGADEIRO EDUARDO GOMES ","coordenadas":"-10.157907, -67.736198","lat":"-10.157907","lng":"-67.736198","coords":"-10.157907,-67.736198","qtdvotos":"1074","endereco":"AVENIDA CASTELO BRANCO ","bairro":"CENTRO","cidade":"Senador Guiomard","idcidade":"20","secoes":[{"secao":"35","votosM":"127","votosE":"147"},{"secao":"36","votosM":"114","votosE":"139"},{"secao":"119","votosM":"118","votosE":"152"}],"icon":["http://controlemunicipal.tk/assets/img/ic_azul.png"],"votosMG":[359],"votosEG":[438]},{"idlocal":"1556","local":"ESCOLA CARLOS ALBERTO PEREIRA DO NASCIMENTO ","coordenadas":"-10.166333, -67.720738","lat":"-10.166333","lng":"-67.720738","coords":"-10.166333,-67.720738","qtdvotos":"339","endereco":"RUA GERSON PEREIRA DO NASCIMENTO","bairro":"DEMOCRACIA ","cidade":"Senador Guiomard","idcidade":"20","secoes":[{"secao":"134","votosM":"127","votosE":"128"}],"icon":["http://controlemunicipal.tk/assets/img/ic_azul.png"],"votosMG":[127],"votosEG":[128]},{"idlocal":"1548","local":"ESCOLA DE ENSINO INFANTIL MONTEIRO LOBATO ","coordenadas":"-10.147478, -67.737576","lat":"-10.147478","lng":"-67.737576","coords":"-10.147478,-67.737576","qtdvotos":"406","endereco":"RUA BRASILIANO C\u00ceNCIO","bairro":"TRIUNFO","cidade":"Senador Guiomard","idcidade":"20","secoes":[{"secao":"104, 208","votosM":"141","votosE":"182"}],"icon":["http://controlemunicipal.tk/assets/img/ic_azul.png"],"votosMG":[141],"votosEG":[182]},{"idlocal":"1534","local":"ESCOLA DIVA PEREIRA DE SOUZA ","coordenadas":"-10.157351, -67.730886","lat":"-10.157351","lng":"-67.730886","coords":"-10.157351,-67.730886","qtdvotos":"1425","endereco":"AVENIDA EDUARDO ASMAR ","bairro":"COHAB","cidade":"Senador Guiomard","idcidade":"20","secoes":[{"secao":"67","votosM":"113","votosE":"105"},{"secao":"73","votosM":"90","votosE":"126"},{"secao":"82","votosM":"88","votosE":"116"},{"secao":"90","votosM":"104","votosE":"99"},{"secao":"91, 212","votosM":"141","votosE":"158"}],"icon":["http://controlemunicipal.tk/assets/img/ic_azul.png"],"votosMG":[645],"votosEG":[707]},{"idlocal":"1540","local":"ESCOLA JOELMA DE OLIVEIRA ","coordenadas":"-9.845953, -67.155066","lat":"-9.845953","lng":"-67.155066","coords":"-9.845953,-67.155066","qtdvotos":"214","endereco":"BR 364 KM 83 RAMAL OCO DO MUNDO KM 25 ","bairro":"ZONA RURAL","cidade":"Senador Guiomard","idcidade":"20","secoes":[{"secao":"79","votosM":"19","votosE":"66"}],"icon":["http://controlemunicipal.tk/assets/img/ic_azul.png"],"votosMG":[19],"votosEG":[66]},{"idlocal":"1559","local":"ESCOLA LUIZ QUEIROZ NOGUEIRA","coordenadas":"-9.678568, -67.146009","lat":"-9.678568","lng":"-67.146009","coords":"-9.678568,-67.146009","qtdvotos":"218","endereco":"BR 317 KM 75 RAMAL PROGRESSO KM 23 ","bairro":"ZONA RURAL","cidade":"Senador Guiomard","idcidade":"20","secoes":[{"secao":"153, 207","votosM":"59","votosE":"107"}],"icon":["http://controlemunicipal.tk/assets/img/ic_azul.png"],"votosMG":[59],"votosEG":[107]},{"idlocal":"1513","local":"ESCOLA LUPICINIO ALEXENDRE NUNES ","coordenadas":"-10.157596, -67.736844","lat":"-10.157596","lng":"-67.736844","coords":"-10.157596,-67.736844","qtdvotos":"652","endereco":"RUA SAO PAULO","bairro":"CENTRO","cidade":"Senador Guiomard","idcidade":"20","secoes":[{"secao":"27","votosM":"103","votosE":"99"},{"secao":"56, 188, 206","votosM":"119","votosE":"171"}],"icon":["http://controlemunicipal.tk/assets/img/ic_azul.png"],"votosMG":[222],"votosEG":[270]},{"idlocal":"1537","local":"ESCOLA MANOEL DA COSTA SOBRINHO ","coordenadas":"-9.941705, -67.295394","lat":"-9.941705","lng":"-67.295394","coords":"-9.941705,-67.295394","qtdvotos":"323","endereco":"BR 364 KM 70 RAMAL STA. MARIA KM 15 ","bairro":"ZONA RURAL","cidade":"Senador Guiomard","idcidade":"20","secoes":[{"secao":"70, 175","votosM":"42","votosE":"197"}],"icon":["http://controlemunicipal.tk/assets/img/ic_azul.png"],"votosMG":[42],"votosEG":[197]},{"idlocal":"1527","local":"ESCOLA MANOEL GONZAGA - 1 CADERNINHO ","coordenadas":"-10.150995, -67.740199","lat":"-10.150995","lng":"-67.740199","coords":"-10.150995,-67.740199","qtdvotos":"464","endereco":"RUA 3 DE MAIO, ESQ. RUA COSTA E SILVA ","bairro":"CENTRO","cidade":"Senador Guiomard","idcidade":"20","secoes":[{"secao":"49","votosM":"86","votosE":"115"},{"secao":"187","votosM":"65","votosE":"73"}],"icon":["http://controlemunicipal.tk/assets/img/ic_azul.png"],"votosMG":[151],"votosEG":[188]},{"idlocal":"1546","local":"ESCOLA MARIA AUXILIADORA QUEIROZ ","coordenadas":"-9.913662, -67.169418","lat":"-9.913662","lng":"-67.169418","coords":"-9.913662,-67.169418","qtdvotos":"481","endereco":"BR 364 KM 80 RAMAL NABOR JUNIOR KM 8 ","bairro":"ZONA RURAL","cidade":"Senador Guiomard","idcidade":"20","secoes":[{"secao":"98","votosM":"95","votosE":"90"},{"secao":"126","votosM":"83","votosE":"98"}],"icon":["http://controlemunicipal.tk/assets/img/ic_azul.png"],"votosMG":[178],"votosEG":[188]},{"idlocal":"1561","local":"ESCOLA MARIA JOSE BEZERRA DOS REIS ","coordenadas":"-10.113577, -67.471962","lat":"-10.113577","lng":"-67.471962","coords":"-10.113577,-67.471962","qtdvotos":"168","endereco":"BR 364 KM 39 BEIRA DA BR ","bairro":"ZONA RURAL","cidade":"Senador Guiomard","idcidade":"20","secoes":[{"secao":"161","votosM":"52","votosE":"78"}],"icon":["http://controlemunicipal.tk/assets/img/ic_azul.png"],"votosMG":[52],"votosEG":[78]},{"idlocal":"1517","local":"ESCOLA MUNICIPAL ALBERTO ZAIRE ","coordenadas":"-10.152216, -67.731259","lat":"-10.152216","lng":"-67.731259","coords":"-10.152216,-67.731259","qtdvotos":"1016","endereco":"RUA JOSE DE BARROS","bairro":"SAO FRANCISCO","cidade":"Senador Guiomard","idcidade":"20","secoes":[{"secao":"31","votosM":"115","votosE":"119"},{"secao":"116","votosM":"109","votosE":"134"},{"secao":"131","votosM":"92","votosE":"149"}],"icon":["http://controlemunicipal.tk/assets/img/ic_azul.png"],"votosMG":[316],"votosEG":[402]},{"idlocal":"1515","local":"ESCOLA MUNICIPAL FENELON MANOEL ","coordenadas":"-10.155286, -67.736289","lat":"-10.155286","lng":"-67.736289","coords":"-10.155286,-67.736289","qtdvotos":"582","endereco":"RUA CLETO REINALDO RAMOS ","bairro":"CENTRO","cidade":"Senador Guiomard","idcidade":"20","secoes":[{"secao":"29","votosM":"93","votosE":"122"},{"secao":"53","votosM":"103","votosE":"119"}],"icon":["http://controlemunicipal.tk/assets/img/ic_azul.png"],"votosMG":[196],"votosEG":[241]},{"idlocal":"1560","local":"ESCOLA MUNICIPAL ORLANDO DE SOUZA VIANA ","coordenadas":"-10.142524, -67.732809","lat":"-10.142524","lng":"-67.732809","coords":"-10.142524,-67.732809","qtdvotos":"573","endereco":"RUA JAMIL BESTENE","bairro":"NAIRE LEITE","cidade":"Senador Guiomard","idcidade":"20","secoes":[{"secao":"154","votosM":"112","votosE":"122"},{"secao":"200","votosM":"80","votosE":"99"}],"icon":["http://controlemunicipal.tk/assets/img/ic_azul.png"],"votosMG":[192],"votosEG":[221]},{"idlocal":"1565","local":"ESCOLA NUBIA MARIA FERNANDES ","coordenadas":"-10.148609, -67.731405","lat":"-10.148609","lng":"-67.731405","coords":"-10.148609,-67.731405","qtdvotos":"284","endereco":"RUA JOSE DE BARROS","bairro":"SAO FRANCISCO","cidade":"Senador Guiomard","idcidade":"20","secoes":[{"secao":"172","votosM":"87","votosE":"139"}],"icon":["http://controlemunicipal.tk/assets/img/ic_azul.png"],"votosMG":[87],"votosEG":[139]},{"idlocal":"1536","local":"ESCOLA PADRE CARLOS CASAVECCHIA ","coordenadas":"-10.088385, -67.530503","lat":"-10.088385","lng":"-67.530503","coords":"-10.088385,-67.530503","qtdvotos":"556","endereco":"BR 364 KM 32 RAMAL NOVA ALDEIA KM 01 ","bairro":"ZONA RURAL","cidade":"Senador Guiomard","idcidade":"20","secoes":[{"secao":"69","votosM":"102","votosE":"102"},{"secao":"100","votosM":"97","votosE":"116"}],"icon":["http://controlemunicipal.tk/assets/img/ic_azul.png"],"votosMG":[199],"votosEG":[218]},{"idlocal":"1558","local":"ESCOLA RAIMUNDO HERMINIO DE MELO II","coordenadas":"-10.192958, -67.548285","lat":"-10.192958","lng":"-67.548285","coords":"-10.192958,-67.548285","qtdvotos":"319","endereco":"BR 364 KM 32 RAMAL NOVA ALDEIA KM 15","bairro":"ZONA RURAL","cidade":"Senador Guiomard","idcidade":"20","secoes":[{"secao":"152","votosM":"145","votosE":"137"}],"icon":["http://controlemunicipal.tk/assets/img/ic_vermelho.png"],"votosMG":[145],"votosEG":[137]},{"idlocal":"1539","local":"ESCOLA ROSALINA DA SILVEIRA ","coordenadas":"-10.103501, -67.754449","lat":"-10.103501","lng":"-67.754449","coords":"-10.103501,-67.754449","qtdvotos":"502","endereco":"RODOVIA AC 40 KM 18 VILA PARAISO ","bairro":"ZONA RURAL","cidade":"Senador Guiomard","idcidade":"20","secoes":[{"secao":"78","votosM":"81","votosE":"102"},{"secao":"174, 210","votosM":"90","votosE":"122"}],"icon":["http://controlemunicipal.tk/assets/img/ic_azul.png"],"votosMG":[171],"votosEG":[224]},{"idlocal":"1563","local":"ESCOLA SAO FRANCISCO DE ASSIS","coordenadas":"-9.889465, -67.441425","lat":"-9.889465","lng":"-67.441425","coords":"-9.889465,-67.441425","qtdvotos":"192","endereco":"BR 317 KM 52 VILA PIA ","bairro":"ZONA RURAL","cidade":"Senador Guiomard","idcidade":"20","secoes":[{"secao":"167","votosM":"80","votosE":"81"}],"icon":["http://controlemunicipal.tk/assets/img/ic_azul.png"],"votosMG":[80],"votosEG":[81]},{"idlocal":"1528","local":"ESCOLA SAO JOSE IV ","coordenadas":"-9.974791, -67.357986","lat":"-9.974791","lng":"-67.357986","coords":"-9.974791,-67.357986","qtdvotos":"184","endereco":"BR 364 KM 53 RAMAL GLEBA","bairro":"ZONA RURAL","cidade":"Senador Guiomard","idcidade":"20","secoes":[{"secao":"50","votosM":"41","votosE":"90"}],"icon":["http://controlemunicipal.tk/assets/img/ic_azul.png"],"votosMG":[41],"votosEG":[90]},{"idlocal":"1519","local":"ESCOLA VEIGA CABRAL ","coordenadas":"-10.153559, -67.739137","lat":"-10.153559","lng":"-67.739137","coords":"-10.153559,-67.739137","qtdvotos":"1181","endereco":"RUA TRES DE MAIO ","bairro":"CENTRO","cidade":"Senador Guiomard","idcidade":"20","secoes":[{"secao":"33","votosM":"107","votosE":"132"},{"secao":"34","votosM":"128","votosE":"129"},{"secao":"41","votosM":"99","votosE":"134"},{"secao":"204","votosM":"45","votosE":"86"}],"icon":["http://controlemunicipal.tk/assets/img/ic_azul.png"],"votosMG":[379],"votosEG":[481]},{"idlocal":"1512","local":"IDAF - (ANTIGA PRONASA) ","coordenadas":"-10.155138, -67.736550","lat":"-10.155138","lng":"-67.736550","coords":"-10.155138,-67.736550","qtdvotos":"216","endereco":"RUA CLETO REINALDO RAMOS","bairro":"CENTRO","cidade":"Senador Guiomard","idcidade":"20","secoes":[{"secao":"26, 192","votosM":"69","votosE":"83"}],"icon":["http://controlemunicipal.tk/assets/img/ic_azul.png"],"votosMG":[69],"votosEG":[83]},{"idlocal":"1564","local":"PREDIO DA SEATER ","coordenadas":"-9.774051, -67.362079","lat":"-9.774051","lng":"-67.362079","coords":"-9.774051,-67.362079","qtdvotos":"185","endereco":"BR 317 KM 70 BOCA RAMAL AREIA BRANCA ","bairro":"ZONA RURAL","cidade":"Senador Guiomard","idcidade":"20","secoes":[{"secao":"168","votosM":"39","votosE":"109"}],"icon":["http://controlemunicipal.tk/assets/img/ic_azul.png"],"votosMG":[39],"votosEG":[109]},{"idlocal":"1544","local":"SOCIEDADE EDUCACIONAL DO QUINARI - ESCOLA MODELO ","coordenadas":"-10.156629, -67.732615","lat":"-10.156629","lng":"-67.732615","coords":"-10.156629,-67.732615","qtdvotos":"386","endereco":"AVENIDA GUIOMAR VIEIRA, 341","bairro":"JARDIM BOT\u00ceNICO","cidade":"Senador Guiomard","idcidade":"20","secoes":[{"secao":"92","votosM":"39","votosE":"109"}],"icon":["http://controlemunicipal.tk/assets/img/ic_amar.png"],"votosMG":[0],"votosEG":[0]}]}