{"localidade":[{"idlocal":"544","local":"CAMARA MUNICIPAL","coordenadas":"-8.949299, -72.787632","lat":"-8.949299","lng":"-72.787632","coords":"-8.949299,-72.787632","qtdvotos":"750","endereco":"PRACA ODON FERREIRA DO VALE, S\/N","bairro":"CENTRO","cidade":"Marechal Thaumaturgo","idcidade":"12","secoes":[{"secao":"140","votosM":"129","votosE":"120"},{"secao":"284","votosM":"117","votosE":"103"}],"icon":["http://controlemunicipal.tk/assets/img/ic_vermelho.png"],"votosMG":[246],"votosEG":[223]},{"idlocal":"567","local":"CENTRO CULTURAL CUPICHAU","coordenadas":"-9.443570, -72.650034","lat":"-9.443570","lng":"-72.650034","coords":"-9.443570,-72.650034","qtdvotos":"218","endereco":"ALDEIA CRUZEIRINHO - RIO BREU","bairro":"ZONA RURAL","cidade":"Marechal Thaumaturgo","idcidade":"12","secoes":[{"secao":"326","votosM":"118","votosE":"103"}],"icon":["http://controlemunicipal.tk/assets/img/ic_vermelho.png"],"votosMG":[118],"votosEG":[0]},{"idlocal":"566","local":"ESCOLA ANT\u00a5NIO RUBENS PINHEIRO","coordenadas":"-9.236036, -72.699009","lat":"-9.236036","lng":"-72.699009","coords":"-9.236036,-72.699009","qtdvotos":"152","endereco":"FAZENDA CACHOEIRA - RIO JURUA","bairro":"ZONA RURAL","cidade":"Marechal Thaumaturgo","idcidade":"12","secoes":[{"secao":"324","votosM":"39","votosE":"60"}],"icon":["http://controlemunicipal.tk/assets/img/ic_azul.png"],"votosMG":[39],"votosEG":[60]},{"idlocal":"558","local":"ESCOLA CRIANCA FELIZ","coordenadas":"-9.173327, -72.912027","lat":"-9.173327","lng":"-72.912027","coords":"-9.173327,-72.912027","qtdvotos":"326","endereco":"COMUNIDADE TETEU - RIO AMONIA","bairro":"ZONA RURAL","cidade":"Marechal Thaumaturgo","idcidade":"12","secoes":[{"secao":"236","votosM":"152","votosE":"25"}],"icon":["http://controlemunicipal.tk/assets/img/ic_vermelho.png"],"votosMG":[152],"votosEG":[25]},{"idlocal":"539","local":"ESCOLA ELVIRA FERREIRA GOMES","coordenadas":"-8.949702, -72.790056","lat":"-8.949702","lng":"-72.790056","coords":"-8.949702,-72.790056","qtdvotos":"1113","endereco":"RUA MARIO LOBAO","bairro":"CENTRO","cidade":"Marechal Thaumaturgo","idcidade":"12","secoes":[{"secao":"73","votosM":"115","votosE":"125"},{"secao":"114","votosM":"151","votosE":"125"},{"secao":"251","votosM":"131","votosE":"108"}],"icon":["http://controlemunicipal.tk/assets/img/ic_vermelho.png"],"votosMG":[397],"votosEG":[358]},{"idlocal":"552","local":"ESCOLA ERNESTINA RODRIGUES FERREIRA","coordenadas":"-9.411069, -72.714796","lat":"-9.411069","lng":"-72.714796","coords":"-9.411069,-72.714796","qtdvotos":"401","endereco":"FOZ DO BREU - RIO JURUA","bairro":"ZONA RURAL","cidade":"Marechal Thaumaturgo","idcidade":"12","secoes":[{"secao":"182","votosM":"73","votosE":"40"},{"secao":"230","votosM":"75","votosE":"47"}],"icon":["http://controlemunicipal.tk/assets/img/ic_vermelho.png"],"votosMG":[148],"votosEG":[87]},{"idlocal":"549","local":"ESCOLA JOAO LAURINDO FERREIRA DO VALE","coordenadas":"-9.028037, -72.725623","lat":"-9.028037","lng":"-72.725623","coords":"-9.028037,-72.725623","qtdvotos":"383","endereco":"SERINGAL JARDIM DA PALMA - RIO JURUA","bairro":"ZONA RURAL","cidade":"Marechal Thaumaturgo","idcidade":"12","secoes":[{"secao":"161","votosM":"139","votosE":"119"}],"icon":["http://controlemunicipal.tk/assets/img/ic_vermelho.png"],"votosMG":[139],"votosEG":[119]},{"idlocal":"550","local":"ESCOLA JOAO PRAXEDES","coordenadas":"-9.059770, -72.248142","lat":"-9.059770","lng":"-72.248142","coords":"-9.059770,-72.248142","qtdvotos":"539","endereco":"FOZ DO BAGE - RIO TEJO","bairro":"ZONA RURAL","cidade":"Marechal Thaumaturgo","idcidade":"12","secoes":[{"secao":"162","votosM":"101","votosE":"80"},{"secao":"201","votosM":"103","votosE":"84"}],"icon":["http://controlemunicipal.tk/assets/img/ic_vermelho.png"],"votosMG":[204],"votosEG":[164]},{"idlocal":"556","local":"ESCOLA JOSE PINTO PEREIRA","coordenadas":"-9.122847, -72.698330","lat":"-9.122847","lng":"-72.698330","coords":"-9.122847,-72.698330","qtdvotos":"427","endereco":"COMUNIDADE BELFORT - RIO JURUA","bairro":"ZONA RURAL","cidade":"Marechal Thaumaturgo","idcidade":"12","secoes":[{"secao":"223","votosM":"106","votosE":"80"},{"secao":"294","votosM":"46","votosE":"25"}],"icon":["http://controlemunicipal.tk/assets/img/ic_vermelho.png"],"votosMG":[152],"votosEG":[105]},{"idlocal":"540","local":"ESCOLA JUSTINIANO DE SERPA","coordenadas":"-8.949640, -72.787336","lat":"-8.949640","lng":"-72.787336","coords":"-8.949640,-72.787336","qtdvotos":"1290","endereco":"PRACA ODON FERREIRA DO VALE, S\/N","bairro":"CENTRO","cidade":"Marechal Thaumaturgo","idcidade":"12","secoes":[{"secao":"74","votosM":"126","votosE":"104"},{"secao":"75","votosM":"107","votosE":"114"},{"secao":"141","votosM":"111","votosE":"91"},{"secao":"279","votosM":"113","votosE":"98"}],"icon":["http://controlemunicipal.tk/assets/img/ic_vermelho.png"],"votosMG":[457],"votosEG":[407]},{"idlocal":"559","local":"ESCOLA LAURA SALES DE MELO","coordenadas":"-8.658656, -72.881096","lat":"-8.658656","lng":"-72.881096","coords":"-8.658656,-72.881096","qtdvotos":"313","endereco":"COMUNIDADE REMANSO - RIO BAGE","bairro":"ZONA RURAL","cidade":"Marechal Thaumaturgo","idcidade":"12","secoes":[{"secao":"237","votosM":"123","votosE":"64"}],"icon":["http://controlemunicipal.tk/assets/img/ic_vermelho.png"],"votosMG":[123],"votosEG":[64]},{"idlocal":"542","local":"ESCOLA MANOEL RODRIGUES DE ARAUJO","coordenadas":"-8.946144, -72.785708","lat":"-8.946144","lng":"-72.785708","coords":"-8.946144,-72.785708","qtdvotos":"1018","endereco":"RUA FERNANDO GUAPINDAIA","bairro":"CENTRO","cidade":"Marechal Thaumaturgo","idcidade":"12","secoes":[{"secao":"76","votosM":"110","votosE":"125"},{"secao":"142","votosM":"120","votosE":"101"},{"secao":"327, 331","votosM":"130","votosE":"118"}],"icon":["http://controlemunicipal.tk/assets/img/ic_vermelho.png"],"votosMG":[360],"votosEG":[344]},{"idlocal":"551","local":"ESCOLA MARNIZIA CRUZ","coordenadas":"-8.763502, -72.821947","lat":"-8.763502","lng":"-72.821947","coords":"-8.763502,-72.821947","qtdvotos":"569","endereco":"SERINGAL TRIUNFO - RIO JURUA","bairro":"ZONA RURAL","cidade":"Marechal Thaumaturgo","idcidade":"12","secoes":[{"secao":"163","votosM":"102","votosE":"95"},{"secao":"203","votosM":"99","votosE":"95"}],"icon":["http://controlemunicipal.tk/assets/img/ic_vermelho.png"],"votosMG":[201],"votosEG":[190]},{"idlocal":"565","local":"ESCOLA PRAXEDES BRANDAO","coordenadas":"-9.077669, -72.680945","lat":"-9.077669","lng":"-72.680945","coords":"-9.077669,-72.680945","qtdvotos":"193","endereco":"COMUNIDADE ORIENTE - RIO JURUA","bairro":"ZONA RURAL","cidade":"Marechal Thaumaturgo","idcidade":"12","secoes":[{"secao":"318","votosM":"109","votosE":"35"}],"icon":["http://controlemunicipal.tk/assets/img/ic_vermelho.png"],"votosMG":[109],"votosEG":[35]},{"idlocal":"548","local":"ESCOLA SAO RAIMUNDO","coordenadas":"-9.276216, -72.683075","lat":"-9.276216","lng":"-72.683075","coords":"-9.276216,-72.683075","qtdvotos":"324","endereco":"SERINGAL CAIPORA, FAZENDA NATAL - RIO JURUA","bairro":"ZONA RURAL","cidade":"Marechal Thaumaturgo","idcidade":"12","secoes":[{"secao":"160","votosM":"33","votosE":"71"},{"secao":"289","votosM":"10","votosE":"45"}],"icon":["http://controlemunicipal.tk/assets/img/ic_azul.png"],"votosMG":[43],"votosEG":[116]},{"idlocal":"547","local":"ESCOLA ZILA VASCONCELOS","coordenadas":"-8.941813, -72.577513","lat":"-8.941813","lng":"-72.577513","coords":"-8.941813,-72.577513","qtdvotos":"783","endereco":"SERINGAL RESTAURACAO - RIO TEJO","bairro":"ZONA RURAL","cidade":"Marechal Thaumaturgo","idcidade":"12","secoes":[{"secao":"143","votosM":"151","votosE":"119"},{"secao":"196","votosM":"156","votosE":"120"}],"icon":["http://controlemunicipal.tk/assets/img/ic_vermelho.png"],"votosMG":[307],"votosEG":[239]}]}