{"localidade":[{"idlocal":"524","local":"CENTRO DE FLORESTANIA","coordenadas":"-8.836645, -69.260367","lat":"-8.836645","lng":"-69.260367","coords":"-8.836645,-69.260367","qtdvotos":"786","endereco":"RUA VALERIO CALDAS DE MAGALHAES","bairro":"CENTRO","cidade":"Manoel Urbano","idcidade":"11","secoes":[{"secao":"43","votosM":"158","votosE":"33"},{"secao":"59","votosM":"170","votosE":"37"}],"icon":["http://controlemunicipal.tk/assets/img/ic_vermelho.png"],"votosMG":[328],"votosEG":[70]},{"idlocal":"532","local":"CRECHE IEDA ARAUJO","coordenadas":"-8.838150, -69.263940","lat":"-8.838150","lng":"-69.263940","coords":"-8.838150,-69.263940","qtdvotos":"785","endereco":"RUA CHAGAS SABINO","bairro":"ANIBAL SARAIVA","cidade":"Manoel Urbano","idcidade":"11","secoes":[{"secao":"51","votosM":"170","votosE":"41"},{"secao":"52","votosM":"187","votosE":"39"}],"icon":["http://controlemunicipal.tk/assets/img/ic_vermelho.png"],"votosMG":[357],"votosEG":[80]},{"idlocal":"528","local":"ESCOLA ANTONIA MENDES","coordenadas":"-8.833554, -69.259279","lat":"-8.833554","lng":"-69.259279","coords":"-8.833554,-69.259279","qtdvotos":"1070","endereco":"RUA PRESIDENTE CASTELO BRANCO","bairro":"SAO FRANCISCO","cidade":"Manoel Urbano","idcidade":"11","secoes":[{"secao":"47","votosM":"158","votosE":"36"},{"secao":"48","votosM":"149","votosE":"47"},{"secao":"89","votosM":"128","votosE":"57"}],"icon":["http://controlemunicipal.tk/assets/img/ic_vermelho.png"],"votosMG":[435],"votosEG":[140]},{"idlocal":"522","local":"ESCOLA DOM PROSPERO BERNARD","coordenadas":"-8.837493, -69.261367","lat":"-8.837493","lng":"-69.261367","coords":"-8.837493,-69.261367","qtdvotos":"796","endereco":"RUA VALERIO CALDAS DE MAGALHAES","bairro":"CENTRO","cidade":"Manoel Urbano","idcidade":"11","secoes":[{"secao":"41","votosM":"153","votosE":"40"},{"secao":"42","votosM":"161","votosE":"43"}],"icon":["http://controlemunicipal.tk/assets/img/ic_vermelho.png"],"votosMG":[314],"votosEG":[83]},{"idlocal":"530","local":"ESCOLA MARIA DAS GRACAS ALVES DA ROCHA","coordenadas":"-8.832613, -69.266259","lat":"-8.832613","lng":"-69.266259","coords":"-8.832613,-69.266259","qtdvotos":"789","endereco":"RUA FRANCISCO FERREIRA MENDES","bairro":"SAO FRANCISCO","cidade":"Manoel Urbano","idcidade":"11","secoes":[{"secao":"49","votosM":"162","votosE":"42"},{"secao":"50","votosM":"171","votosE":"45"}],"icon":["http://controlemunicipal.tk/assets/img/ic_vermelho.png"],"votosMG":[333],"votosEG":[87]},{"idlocal":"537","local":"ESCOLA MUNICIPAL LUIZ PLACIDO FERNANDES","coordenadas":"-8.849636, -69.256847","lat":"-8.849636","lng":"-69.256847","coords":"-8.849636,-69.256847","qtdvotos":"79","endereco":"SERINGAL ITAUBA - RIO PURUS","bairro":"ZONA RURAL","cidade":"Manoel Urbano","idcidade":"11","secoes":[{"secao":"102","votosM":"53","votosE":"6"}],"icon":["http://controlemunicipal.tk/assets/img/ic_vermelho.png"],"votosMG":[53],"votosEG":[6]},{"idlocal":"525","local":"ESCOLA NAZIRA ANUTE DE LIMA","coordenadas":"-8.838702, -69.263098","lat":"-8.838702","lng":"-69.263098","coords":"-8.838702,-69.263098","qtdvotos":"1533","endereco":"RUA VALERIO CALDAS DE MAGALHAES","bairro":"CENTRO","cidade":"Manoel Urbano","idcidade":"11","secoes":[{"secao":"44","votosM":"171","votosE":"42"},{"secao":"45","votosM":"179","votosE":"33"},{"secao":"46","votosM":"177","votosE":"46"},{"secao":"107","votosM":"156","votosE":"60"}],"icon":["http://controlemunicipal.tk/assets/img/ic_vermelho.png"],"votosMG":[683],"votosEG":[181]},{"idlocal":"536","local":"ESCOLA SANTA FELINA","coordenadas":"-8.833133, -69.253426","lat":"-8.833133","lng":"-69.253426","coords":"-8.833133,-69.253426","qtdvotos":"155","endereco":"ALDEIA BUACU - RIO PURUS","bairro":"ZONA RURAL","cidade":"Manoel Urbano","idcidade":"11","secoes":[{"secao":"100","votosM":"31","votosE":"32"}],"icon":["http://controlemunicipal.tk/assets/img/ic_azul.png"],"votosMG":[31],"votosEG":[32]}]}