{"localidade":[{"idlocal":"48","local":"CAMARA MUNICIPAL","coordenadas":"-10.939853, -69.567231","lat":"-10.939853","lng":"-69.567231","coords":"-10.939853,-69.567231","qtdvotos":"358","endereco":"RUA RAIMUNDO CHAAR ","bairro":"CENTRO","cidade":"Assis Brasil","idcidade":"2","secoes":[{"secao":"93","votosM":"124","votosE":"139"}],"icon":["http://controlemunicipal.tk/assets/img/ic_azul.png"],"votosMG":[124],"votosEG":[139]},{"idlocal":"39","local":"CENTRO CULTURAL DE FLORESTANIA","coordenadas":"-10.938221, -69.564434","lat":"-10.938221","lng":"-69.564434","coords":"-10.938221,-69.564434","qtdvotos":"634","endereco":"RUA RAFAEL MARTINS LE\u00cdO S\/N","bairro":"CENTRO","cidade":"Assis Brasil","idcidade":"2","secoes":[{"secao":"36","votosM":"154","votosE":"146"},{"secao":"95","votosM":"89","votosE":"100"}],"icon":["http://controlemunicipal.tk/assets/img/ic_azul.png"],"votosMG":[243],"votosEG":[246]},{"idlocal":"45","local":"ESCOLA BAIXA VERDE","coordenadas":"-10.931547, -69.605357","lat":"-10.931547","lng":"-69.605357","coords":"-10.931547,-69.605357","qtdvotos":"247","endereco":"SERINGAL ICURIA RAMAL DO KM-40 DIVISAO ","bairro":"ZONA RURAL","cidade":"Assis Brasil","idcidade":"2","secoes":[{"secao":"78","votosM":"151","votosE":"47"}],"icon":["http://controlemunicipal.tk/assets/img/ic_vermelho.png"],"votosMG":[151],"votosEG":[47]},{"idlocal":"53","local":"ESCOLA CARIOLANDO DE SOUZA GOMES","coordenadas":"-10.953903, -69.643052","lat":"-10.953903","lng":"-69.643052","coords":"-10.953903,-69.643052","qtdvotos":"59","endereco":"SERINGAL SAO FRANCISCO - COLOCACAO DERRETIDO AS MARGENS DO RIO ACRE","bairro":"ZONA RURAL","cidade":"Assis Brasil","idcidade":"2","secoes":[{"secao":"115","votosM":"20","votosE":"27"}],"icon":["http://controlemunicipal.tk/assets/img/ic_azul.png"],"votosMG":[20],"votosEG":[27]},{"idlocal":"36","local":"ESCOLA EDILSA MARIA BATISTA","coordenadas":"-10.940415, -69.564085","lat":"-10.940415","lng":"-69.564085","coords":"-10.940415,-69.564085","qtdvotos":"629","endereco":"RUA ENEIDE BATISTA N. 830","bairro":"CASCATA","cidade":"Assis Brasil","idcidade":"2","secoes":[{"secao":"29","votosM":"126","votosE":"141"},{"secao":"73","votosM":"125","votosE":"133"}],"icon":["http://controlemunicipal.tk/assets/img/ic_azul.png"],"votosMG":[251],"votosEG":[274]},{"idlocal":"51","local":"ESCOLA INDIGENA 7 ESTRELAS - ALDEIA EXTREMA","coordenadas":"-10.707757, -70.234481","lat":"-10.707757","lng":"-70.234481","coords":"-10.707757,-70.234481","qtdvotos":"110","endereco":"ALDEIA EXTREMA, ALTO RIO IACO ","bairro":"ZONA RURAL","cidade":"Assis Brasil","idcidade":"2","secoes":[{"secao":"108","votosM":"64","votosE":"7"}],"icon":["http://controlemunicipal.tk/assets/img/ic_vermelho.png"],"votosMG":[64],"votosEG":[7]},{"idlocal":"37","local":"ESCOLA IRIS CELIA CABANELLAS ZANNINI","coordenadas":"-10.939774, -69.566413","lat":"-10.939774","lng":"-69.566413","coords":"-10.939774,-69.566413","qtdvotos":"1765","endereco":"RUA ENEIDE BATISTA 525 ","bairro":"CENTRO","cidade":"Assis Brasil","idcidade":"2","secoes":[{"secao":"30","votosM":"114","votosE":"138"},{"secao":"31","votosM":"117","votosE":"130"},{"secao":"37","votosM":"120","votosE":"119"},{"secao":"43","votosM":"103","votosE":"123"},{"secao":"52","votosM":"119","votosE":"110"},{"secao":"90","votosM":"92","votosE":"117"}],"icon":["http://controlemunicipal.tk/assets/img/ic_azul.png"],"votosMG":[665],"votosEG":[737]},{"idlocal":"50","local":"ESCOLA KAJPAHA","coordenadas":"-10.605283, -70.017762","lat":"-10.605283","lng":"-70.017762","coords":"-10.605283,-70.017762","qtdvotos":"214","endereco":"ALDEIA JATOBA - AS MARGENS DO ALTO RIO IACO ","bairro":"ZONA RURAL","cidade":"Assis Brasil","idcidade":"2","secoes":[{"secao":"104","votosM":"91","votosE":"56"}],"icon":["http://controlemunicipal.tk/assets/img/ic_vermelho.png"],"votosMG":[91],"votosEG":[56]},{"idlocal":"43","local":"ESCOLA MARIA FERREIRA DA SILVA","coordenadas":"-10.939328, -69.556182","lat":"-10.939328","lng":"-69.556182","coords":"-10.939328,-69.556182","qtdvotos":"393","endereco":"RUA JUVENAL DUARTE DE SOUZA S\/N","bairro":"BELA VISTA","cidade":"Assis Brasil","idcidade":"2","secoes":[{"secao":"66","votosM":"150","votosE":"176"}],"icon":["http://controlemunicipal.tk/assets/img/ic_azul.png"],"votosMG":[150],"votosEG":[176]},{"idlocal":"52","local":"ESCOLA PIYAKATI","coordenadas":"-10.967847, -70.301940","lat":"-10.967847","lng":"-70.301940","coords":"-10.967847,-70.301940","qtdvotos":"89","endereco":"TERRA INDIGENA CABECEIRA DO RIO ACRE - ALDEIA 3 CACHOEIRAS ","bairro":"ZONA RURAL","cidade":"Assis Brasil","idcidade":"2","secoes":[{"secao":"114","votosM":"36","votosE":"19"}],"icon":["http://controlemunicipal.tk/assets/img/ic_vermelho.png"],"votosMG":[36],"votosEG":[19]},{"idlocal":"34","local":"ESCOLA SIMON BOLIVAR","coordenadas":"-10.942559, -69.567747","lat":"-10.942559","lng":"-69.567747","coords":"-10.942559,-69.567747","qtdvotos":"481","endereco":"RUA DOM GIOCONDO MARIA GROTT N. 019 ","bairro":"CENTRO","cidade":"Assis Brasil","idcidade":"2","secoes":[{"secao":"27","votosM":"80","votosE":"107"},{"secao":"28","votosM":"96","votosE":"99"}],"icon":["http://controlemunicipal.tk/assets/img/ic_azul.png"],"votosMG":[176],"votosEG":[206]},{"idlocal":"46","local":"POSTO DE SAUDE CRISTO RESSUSCITADO","coordenadas":"-10.933485, -69.609134","lat":"-10.933485","lng":"-69.609134","coords":"-10.933485,-69.609134","qtdvotos":"210","endereco":"SERINGAL ICURIA KM-76 ","bairro":"ZONA RURAL","cidade":"Assis Brasil","idcidade":"2","secoes":[{"secao":"79","votosM":"131","votosE":"31"}],"icon":["http://controlemunicipal.tk/assets/img/ic_vermelho.png"],"votosMG":[131],"votosEG":[31]}]}