{"localidade":[{"idlocal":"31","local":"CENTRO DE FLORESTANIA","coordenadas":"-10.077200, -67.052185","lat":"-10.077200","lng":"-67.052185","coords":"-10.077200,-67.052185","qtdvotos":"292","endereco":"RUA SAO PAULO S\/N","bairro":"CENTRO","cidade":"Acrel\u00e2ndia","idcidade":"1","secoes":[{"secao":"185, 185","votosM":"64","votosE":"143"}],"icon":["http://controlemunicipal.tk/assets/img/ic_azul.png"],"votosMG":[128],"votosEG":[286]},{"idlocal":"16","local":"CENTRO DE REFERENCIA E ASSISTENCIA SOCIAL - CRAS","coordenadas":"-10.078736, -67.055755","lat":"-10.078736","lng":"-67.055755","coords":"-10.078736,-67.055755","qtdvotos":"319","endereco":"AV PARANA N 743  ","bairro":"CENTRO","cidade":"Acrel\u00e2ndia","idcidade":"1","secoes":[{"secao":"117, 209","votosM":"72","votosE":"170"}],"icon":["http://controlemunicipal.tk/assets/img/ic_azul.png"],"votosMG":[72],"votosEG":[170]},{"idlocal":"27","local":"CENTRO DE TRABALHADORES DA AMAZONIA","coordenadas":"-9.909747, -66.935201","lat":"-9.909747","lng":"-66.935201","coords":"-9.909747,-66.935201","qtdvotos":"116","endereco":"BR 364 KM 108 RAMAL DO PELE KM 3 - CTA.","bairro":"ZONA RURAL","cidade":"Acrel\u00e2ndia","idcidade":"1","secoes":[{"secao":"164","votosM":"40","votosE":"54"}],"icon":["http://controlemunicipal.tk/assets/img/ic_azul.png"],"votosMG":[40],"votosEG":[54]},{"idlocal":"32","local":"COLEGIO AGRICOLA","coordenadas":"-10.085456, -67.047971","lat":"-10.085456","lng":"-67.047971","coords":"-10.085456,-67.047971","qtdvotos":"97","endereco":"BR 364 KM 6 RAMAL PROGRESSO KM 6","bairro":"ZONA RURAL","cidade":"Acrel\u00e2ndia","idcidade":"1","secoes":[{"secao":"198","votosM":"44","votosE":"28"}],"icon":["http://controlemunicipal.tk/assets/img/ic_vermelho.png"],"votosMG":[44],"votosEG":[28]},{"idlocal":"9","local":"CRECHE MUNICIPAL","coordenadas":"-10.076727, -67.055750","lat":"-10.076727","lng":"-67.055750","coords":"-10.076727,-67.055750","qtdvotos":"661","endereco":"AV GERALDO BARBOSA C\/ AV. PARANA ","bairro":"CENTRO","cidade":"Acrel\u00e2ndia","idcidade":"1","secoes":[{"secao":"93","votosM":"92","votosE":"156"},{"secao":"125","votosM":"72","votosE":"166"}],"icon":["http://controlemunicipal.tk/assets/img/ic_azul.png"],"votosMG":[164],"votosEG":[322]},{"idlocal":"1","local":"ESCOLA ALTINA MAGALHAES","coordenadas":"-9.873821, -66.920906","lat":"-9.873821","lng":"-66.920906","coords":"-9.873821,-66.920906","qtdvotos":"1210","endereco":"BR 364 KM 114","bairro":"ZONA RURAL","cidade":"Acrel\u00e2ndia","idcidade":"1","secoes":[{"secao":"8","votosM":"80","votosE":"115"},{"secao":"9","votosM":"71","votosE":"130"},{"secao":"83","votosM":"90","votosE":"131"},{"secao":"143","votosM":"77","votosE":"116"}],"icon":["http://controlemunicipal.tk/assets/img/ic_azul.png"],"votosMG":[318],"votosEG":[492]},{"idlocal":"33","local":"ESCOLA JAIME ALENCAR","coordenadas":"-10.088496, -67.077046","lat":"-10.088496","lng":"-67.077046","coords":"-10.088496,-67.077046","qtdvotos":"130","endereco":"AC 475 KM 5 QUADRA 7  PORTO LUIZ I E II","bairro":"ZONA RURAL","cidade":"Acrel\u00e2ndia","idcidade":"1","secoes":[{"secao":"199","votosM":"43","votosE":"59"}],"icon":["http://controlemunicipal.tk/assets/img/ic_azul.png"],"votosMG":[43],"votosEG":[59]},{"idlocal":"24","local":"ESCOLA JOSE PLACIDO DE CASTRO","coordenadas":"-10.095312, -66.933749","lat":"-10.095312","lng":"-66.933749","coords":"-10.095312,-66.933749","qtdvotos":"135","endereco":"PA CUMARU VILA DO T","bairro":"ZONA RURAL","cidade":"Acrel\u00e2ndia","idcidade":"1","secoes":[{"secao":"159","votosM":"34","votosE":"66"}],"icon":["http://controlemunicipal.tk/assets/img/ic_azul.png"],"votosMG":[34],"votosEG":[66]},{"idlocal":"25","local":"ESCOLA JOSE RODRIGUES CASSIMIRO","coordenadas":"-9.939933, -67.081146","lat":"-9.939933","lng":"-67.081146","coords":"-9.939933,-67.081146","qtdvotos":"265","endereco":"BR 364 KM 90 RAMAL DO BIGODE KM 01 ","bairro":"ZONA RURAL","cidade":"Acrel\u00e2ndia","idcidade":"1","secoes":[{"secao":"160","votosM":"36","votosE":"174"}],"icon":["http://controlemunicipal.tk/assets/img/ic_azul.png"],"votosMG":[36],"votosEG":[174]},{"idlocal":"13","local":"ESCOLA MARCILIO PONTES DOS SANTOS","coordenadas":"-10.072545, -67.049446","lat":"-10.072545","lng":"-67.049446","coords":"-10.072545,-67.049446","qtdvotos":"1313","endereco":"AV EDMUNDO PINO C\/ RUA RIO DE JANEIRO ","bairro":"CENTRO","cidade":"Acrel\u00e2ndia","idcidade":"1","secoes":[{"secao":"101","votosM":"85","votosE":"166"},{"secao":"115","votosM":"89","votosE":"167"},{"secao":"123","votosM":"77","votosE":"187"},{"secao":"142","votosM":"80","votosE":"164"}],"icon":["http://controlemunicipal.tk/assets/img/ic_azul.png"],"votosMG":[331],"votosEG":[684]},{"idlocal":"8","local":"ESCOLA MARIA DE JESUS RIBEIRO","coordenadas":"-10.079061, -67.081197","lat":"-10.079061","lng":"-67.081197","coords":"-10.079061,-67.081197","qtdvotos":"401","endereco":"ROD AC 401 KM 15 S\/N VILA REDENCAO  ","bairro":"ZONA RURAL","cidade":"Acrel\u00e2ndia","idcidade":"1","secoes":[{"secao":"85, 178","votosM":"115","votosE":"191"}],"icon":["http://controlemunicipal.tk/assets/img/ic_azul.png"],"votosMG":[115],"votosEG":[191]},{"idlocal":"26","local":"ESCOLA MUN. CASTRO ALVES","coordenadas":"-10.005910, -67.042095","lat":"-10.005910","lng":"-67.042095","coords":"-10.005910,-67.042095","qtdvotos":"144","endereco":"PA ORION RL DA LINHA 3 KM 13 ","bairro":"ZONA RURAL","cidade":"Acrel\u00e2ndia","idcidade":"1","secoes":[{"secao":"162","votosM":"34","votosE":"80"}],"icon":["http://controlemunicipal.tk/assets/img/ic_azul.png"],"votosMG":[34],"votosEG":[80]},{"idlocal":"10","local":"ESCOLA NOVO HORIZONTE","coordenadas":"-10.073876, -67.054982","lat":"-10.073876","lng":"-67.054982","coords":"-10.073876,-67.054982","qtdvotos":"890","endereco":"ROD AC 475","bairro":"CENTRO","cidade":"Acrel\u00e2ndia","idcidade":"1","secoes":[{"secao":"94","votosM":"49","votosE":"120"},{"secao":"99","votosM":"60","votosE":"111"},{"secao":"124","votosM":"67","votosE":"101"},{"secao":"146","votosM":"44","votosE":"99"}],"icon":["http://controlemunicipal.tk/assets/img/ic_azul.png"],"votosMG":[220],"votosEG":[431]},{"idlocal":"3","local":"ESCOLA PEDRO CASTRO MEIRELES","coordenadas":"-10.078587, -67.055955","lat":"-10.078587","lng":"-67.055955","coords":"-10.078587,-67.055955","qtdvotos":"1309","endereco":"AV PARANA RUA DOS PINHEIROS  ","bairro":"CENTRO","cidade":"Acrel\u00e2ndia","idcidade":"1","secoes":[{"secao":"64","votosM":"78","votosE":"154"},{"secao":"72","votosM":"84","votosE":"148"},{"secao":"77","votosM":"68","votosE":"157"},{"secao":"84","votosM":"79","votosE":"150"}],"icon":["http://controlemunicipal.tk/assets/img/ic_azul.png"],"votosMG":[309],"votosEG":[609]},{"idlocal":"28","local":"ESCOLA RITA BOCALON RODRIGUES","coordenadas":"-10.076433, -67.052117","lat":"-10.076433","lng":"-67.052117","coords":"-10.076433,-67.052117","qtdvotos":"456","endereco":"RUA SAO PAULO S\/N","bairro":"CENTRO","cidade":"Acrel\u00e2ndia","idcidade":"1","secoes":[{"secao":"169","votosM":"61","votosE":"101"},{"secao":"181","votosM":"50","votosE":"101"}],"icon":["http://controlemunicipal.tk/assets/img/ic_azul.png"],"votosMG":[111],"votosEG":[202]},{"idlocal":"11","local":"ESCOLA SANTA LUCIA III ","coordenadas":"-9.878966, -67.069715","lat":"-9.878966","lng":"-67.069715","coords":"-9.878966,-67.069715","qtdvotos":"913","endereco":"BR 364 KM 92 RAMAL GRANADA KM 16  ","bairro":"ZONA RURAL","cidade":"Acrel\u00e2ndia","idcidade":"1","secoes":[{"secao":"95","votosM":"89","votosE":"126"},{"secao":"102","votosM":"96","votosE":"113"},{"secao":"132, 205","votosM":"99","votosE":"140"}],"icon":["http://controlemunicipal.tk/assets/img/ic_azul.png"],"votosMG":[284],"votosEG":[379]},{"idlocal":"30","local":"POLO UNIVERSITA RIO DA UAB","coordenadas":"-10.073567, -67.054722","lat":"-10.073567","lng":"-67.054722","coords":"-10.073567,-67.054722","qtdvotos":"393","endereco":"RUA ADENILSON ROGERIO DE OLIVEIRA PROX. A ELETROACRE  ","bairro":"CENTRO","cidade":"Acrel\u00e2ndia","idcidade":"1","secoes":[{"secao":"182, 215","votosM":"93","votosE":"189"}],"icon":["http://controlemunicipal.tk/assets/img/ic_azul.png"],"votosMG":[93],"votosEG":[189]}]}