{"localidade":[{"idlocal":"672","local":"ESCOLA ALFREDO SALES","coordenadas":"-8.539043, -72.804222","lat":"-8.539043","lng":"-72.804222","coords":"-8.539043,-72.804222","qtdvotos":"243","endereco":"RIO GRAJA\u00f7 - GRAJAU","bairro":"ZONA RURAL","cidade":"Porto Walter","idcidade":"15","secoes":[{"secao":"320","votosM":"80","votosE":"59"}],"icon":["http://controlemunicipal.tk/assets/img/ic_vermelho.png"],"votosMG":[80],"votosEG":[59]},{"idlocal":"654","local":"ESCOLA BORGES DE AQUINO","coordenadas":"-8.268301, -72.742113","lat":"-8.268301","lng":"-72.742113","coords":"-8.268301,-72.742113","qtdvotos":"1155","endereco":"RUA BEIRA RIO, S\/N","bairro":"CENTRO","cidade":"Porto Walter","idcidade":"15","secoes":[{"secao":"77","votosM":"130","votosE":"102"},{"secao":"115","votosM":"126","votosE":"120"},{"secao":"145","votosM":"128","votosE":"117"}],"icon":["http://controlemunicipal.tk/assets/img/ic_vermelho.png"],"votosMG":[384],"votosEG":[339]},{"idlocal":"674","local":"ESCOLA CASTELO BRANCO","coordenadas":"-8.213446, -72.955471","lat":"-8.213446","lng":"-72.955471","coords":"-8.213446,-72.955471","qtdvotos":"210","endereco":"COMUNIDADE FORMIGUEIRO - IGARAPE CUMPRIDO","bairro":"ZONA RURAL","cidade":"Porto Walter","idcidade":"15","secoes":[{"secao":"325","votosM":"78","votosE":"47"}],"icon":["http://controlemunicipal.tk/assets/img/ic_vermelho.png"],"votosMG":[78],"votosEG":[47]},{"idlocal":"670","local":"ESCOLA CHATEAUBRIAND BEZERRA","coordenadas":"-8.255079, -72.720602","lat":"-8.255079","lng":"-72.720602","coords":"-8.255079,-72.720602","qtdvotos":"100","endereco":"ESTIRAO AZUL - RIO CRUZEIRO DO VALE","bairro":"ZONA RURAL","cidade":"Porto Walter","idcidade":"15","secoes":[{"secao":"314","votosM":"18","votosE":"53"}],"icon":["http://controlemunicipal.tk/assets/img/ic_azul.png"],"votosMG":[18],"votosEG":[53]},{"idlocal":"669","local":"ESCOLA FRANCISCO DAS CHAGAS","coordenadas":"-8.416426, -72.881830","lat":"-8.416426","lng":"-72.881830","coords":"-8.416426,-72.881830","qtdvotos":"95","endereco":"RIO OURO PRETO - COMUNIDADE IRACEMA","bairro":"ZONA RURAL","cidade":"Porto Walter","idcidade":"15","secoes":[{"secao":"313","votosM":"30","votosE":"25"}],"icon":["http://controlemunicipal.tk/assets/img/ic_vermelho.png"],"votosMG":[30],"votosEG":[25]},{"idlocal":"657","local":"ESCOLA ISAURA AMORIM DE LIMA","coordenadas":"-8.267131, -72.742519","lat":"-8.267131","lng":"-72.742519","coords":"-8.267131,-72.742519","qtdvotos":"756","endereco":"RUA ALFREDO SALES, S\/N","bairro":"CENTRO","cidade":"Porto Walter","idcidade":"15","secoes":[{"secao":"80","votosM":"140","votosE":"127"},{"secao":"146","votosM":"144","votosE":"109"}],"icon":["http://controlemunicipal.tk/assets/img/ic_vermelho.png"],"votosMG":[284],"votosEG":[236]},{"idlocal":"673","local":"ESCOLA JOSE DE MELO BARRETO","coordenadas":"-8.516756, -72.846277","lat":"-8.516756","lng":"-72.846277","coords":"-8.516756,-72.846277","qtdvotos":"135","endereco":"COMUNIDADE 3 BOCAS - RIO DAS MINAS","bairro":"ZONA RURAL","cidade":"Porto Walter","idcidade":"15","secoes":[{"secao":"321","votosM":"48","votosE":"49"}],"icon":["http://controlemunicipal.tk/assets/img/ic_azul.png"],"votosMG":[48],"votosEG":[49]},{"idlocal":"668","local":"ESCOLA LIMA DO VALE","coordenadas":"-8.249557, -72.727749","lat":"-8.249557","lng":"-72.727749","coords":"-8.249557,-72.727749","qtdvotos":"201","endereco":"ALDEIA RAIMUNDO DO VALE - RIO CRUZEIRO DO VALE","bairro":"ZONA RURAL","cidade":"Porto Walter","idcidade":"15","secoes":[{"secao":"311","votosM":"109","votosE":"46"}],"icon":["http://controlemunicipal.tk/assets/img/ic_vermelho.png"],"votosMG":[109],"votosEG":[46]},{"idlocal":"655","local":"ESCOLA MANOEL MOREIRA PINHEIRO","coordenadas":"-8.263648, -72.743808","lat":"-8.263648","lng":"-72.743808","coords":"-8.263648,-72.743808","qtdvotos":"1145","endereco":"RUA MAMED CAMELI, S\/N","bairro":"CENTRO","cidade":"Porto Walter","idcidade":"15","secoes":[{"secao":"78","votosM":"158","votosE":"111"},{"secao":"79","votosM":"120","votosE":"125"},{"secao":"144","votosM":"141","votosE":"125"}],"icon":["http://controlemunicipal.tk/assets/img/ic_vermelho.png"],"votosMG":[419],"votosEG":[361]},{"idlocal":"664","local":"ESCOLA NOSSA SENHORA APARECIDA","coordenadas":"-8.468750, -72.864365","lat":"-8.468750","lng":"-72.864365","coords":"-8.468750,-72.864365","qtdvotos":"448","endereco":"SERINGAL REFORMA - RIO JURUA","bairro":"ZONA RURAL","cidade":"Porto Walter","idcidade":"15","secoes":[{"secao":"166","votosM":"33","votosE":"51"},{"secao":"202","votosM":"29","votosE":"48"},{"secao":"286","votosM":"28","votosE":"19"}],"icon":["http://controlemunicipal.tk/assets/img/ic_azul.png"],"votosMG":[90],"votosEG":[118]},{"idlocal":"663","local":"ESCOLA SAO JOSE","coordenadas":"-8.250016, -72.719212","lat":"-8.250016","lng":"-72.719212","coords":"-8.250016,-72.719212","qtdvotos":"387","endereco":"COMUNIDADE MORORO - RIO CRUZEIRO DO VALE","bairro":"ZONA RURAL","cidade":"Porto Walter","idcidade":"15","secoes":[{"secao":"164","votosM":"66","votosE":"92"},{"secao":"245","votosM":"57","votosE":"68"}],"icon":["http://controlemunicipal.tk/assets/img/ic_azul.png"],"votosMG":[123],"votosEG":[160]},{"idlocal":"659","local":"ESCOLA SEBASTIAO CORREIA LIMA","coordenadas":"-8.265944, -72.746740","lat":"-8.265944","lng":"-72.746740","coords":"-8.265944,-72.746740","qtdvotos":"394","endereco":"RUA JOSE ESTEPHAN BARBARY, S\/N","bairro":"CENTRO","cidade":"Porto Walter","idcidade":"15","secoes":[{"secao":"132","votosM":"137","votosE":"117"}],"icon":["http://controlemunicipal.tk/assets/img/ic_vermelho.png"],"votosMG":[137],"votosEG":[117]},{"idlocal":"671","local":"ESCOLA VENCESLAU BRAZ","coordenadas":"-8.349340, -72.759450","lat":"-8.349340","lng":"-72.759450","coords":"-8.349340,-72.759450","qtdvotos":"176","endereco":"COMUNIDADE VITORIA RIO JURUA","bairro":"ZONA RURAL","cidade":"Porto Walter","idcidade":"15","secoes":[{"secao":"316","votosM":"41","votosE":"87"}],"icon":["http://controlemunicipal.tk/assets/img/ic_azul.png"],"votosMG":[41],"votosEG":[87]}]}