{"localidade":[{"idlocal":"591","local":"CENTRO DE FLORESTANIA","coordenadas":"-10.336822, -67.185528","lat":"-10.336822","lng":"-67.185528","coords":"-10.336822,-67.185528","qtdvotos":"647","endereco":"RUA EPAMINONDAS JACOME","bairro":"CENTRO","cidade":"Pl\u00e1cido de Castro","idcidade":"13","secoes":[{"secao":"54, 87","votosM":"84","votosE":"51"},{"secao":"111, 183","votosM":"92","votosE":"34"}],"icon":["http://controlemunicipal.tk/assets/img/ic_vermelho.png"],"votosMG":[176],"votosEG":[85]},{"idlocal":"589","local":"CENTRO DIFUSAO TECNOL\u00d3GICA ","coordenadas":"-10.327705, -67.185516","lat":"-10.327705","lng":"-67.185516","coords":"-10.327705,-67.185516","qtdvotos":"373","endereco":"RUA EPITACIO PESSOA S\/N","bairro":"CENTRO","cidade":"Pl\u00e1cido de Castro","idcidade":"13","secoes":[{"secao":"51, 144, 184","votosM":"111","votosE":"48"}],"icon":["http://controlemunicipal.tk/assets/img/ic_vermelho.png"],"votosMG":[111],"votosEG":[48]},{"idlocal":"571","local":"C\u00ceMARA MUNICIPAL","coordenadas":"-10.333824, -67.184903","lat":"-10.333824","lng":"-67.184903","coords":"-10.333824,-67.184903","qtdvotos":"570","endereco":"RUA EPITACIO PESSOA S\/N","bairro":"CENTRO","cidade":"Pl\u00e1cido de Castro","idcidade":"13","secoes":[{"secao":"3","votosM":"85","votosE":"26"},{"secao":"4","votosM":"75","votosE":"35"}],"icon":["http://controlemunicipal.tk/assets/img/ic_vermelho.png"],"votosMG":[160],"votosEG":[61]},{"idlocal":"574","local":"EMATER-ACRE","coordenadas":"-10.334148, -67.184298","lat":"-10.334148","lng":"-67.184298","coords":"-10.334148,-67.184298","qtdvotos":"369","endereco":"RUA CEL FONTENELE DE CASTRO","bairro":"CENTRO","cidade":"Pl\u00e1cido de Castro","idcidade":"13","secoes":[{"secao":"6, 42","votosM":"93","votosE":"46"}],"icon":["http://controlemunicipal.tk/assets/img/ic_vermelho.png"],"votosMG":[93],"votosEG":[46]},{"idlocal":"612","local":"ESCOLA CARLOS JOSE DOS SANTOS","coordenadas":"-10.197938, -67.164468","lat":"-10.197938","lng":"-67.164468","coords":"-10.197938,-67.164468","qtdvotos":"244","endereco":"AC 475 KM 14","bairro":"ZONA RURAL","cidade":"Pl\u00e1cido de Castro","idcidade":"13","secoes":[{"secao":"165","votosM":"51","votosE":"29"}],"icon":["http://controlemunicipal.tk/assets/img/ic_vermelho.png"],"votosMG":[51],"votosEG":[29]},{"idlocal":"573","local":"ESCOLA CARMELIA ALVES","coordenadas":"-10.322420, -67.186487","lat":"-10.322420","lng":"-67.186487","coords":"-10.322420,-67.186487","qtdvotos":"549","endereco":"RUA EPITACIO PESSOA S\/N","bairro":"CENTRO","cidade":"Pl\u00e1cido de Castro","idcidade":"13","secoes":[{"secao":"5","votosM":"74","votosE":"27"},{"secao":"80, 189","votosM":"81","votosE":"34"}],"icon":["http://controlemunicipal.tk/assets/img/ic_vermelho.png"],"votosMG":[155],"votosEG":[61]},{"idlocal":"575","local":"ESCOLA CASINHA DO SABER","coordenadas":"-10.334076, -67.184138","lat":"-10.334076","lng":"-67.184138","coords":"-10.334076,-67.184138","qtdvotos":"363","endereco":"RUA CEL FONTENELE DE CASTRO","bairro":"CENTRO","cidade":"Pl\u00e1cido de Castro","idcidade":"13","secoes":[{"secao":"7, 141","votosM":"115","votosE":"53"}],"icon":["http://controlemunicipal.tk/assets/img/ic_vermelho.png"],"votosMG":[115],"votosEG":[53]},{"idlocal":"576","local":"ESCOLA ELIAS MANSOUR SIMAO FILHO","coordenadas":"-10.334103, -67.184631","lat":"-10.334103","lng":"-67.184631","coords":"-10.334103,-67.184631","qtdvotos":"719","endereco":"RUA CEL FONTENELE DE CASTRO","bairro":"CENTRO","cidade":"Pl\u00e1cido de Castro","idcidade":"13","secoes":[{"secao":"10","votosM":"65","votosE":"35"},{"secao":"45","votosM":"67","votosE":"29"},{"secao":"137","votosM":"71","votosE":"34"}],"icon":["http://controlemunicipal.tk/assets/img/ic_vermelho.png"],"votosMG":[203],"votosEG":[98]},{"idlocal":"610","local":"ESCOLA FLAVIA BARROS PIMENTEL","coordenadas":"-10.332057, -67.408139","lat":"-10.332057","lng":"-67.408139","coords":"-10.332057,-67.408139","qtdvotos":"429","endereco":"AC 40 KM 75","bairro":"ZONA RURAL","cidade":"Pl\u00e1cido de Castro","idcidade":"13","secoes":[{"secao":"155, 201","votosM":"127","votosE":"50"}],"icon":["http://controlemunicipal.tk/assets/img/ic_vermelho.png"],"votosMG":[127],"votosEG":[50]},{"idlocal":"581","local":"ESCOLA FRANKLIN ROOSEVELT","coordenadas":"-10.335233, -67.186308","lat":"-10.335233","lng":"-67.186308","coords":"-10.335233,-67.186308","qtdvotos":"1487","endereco":"AV. JUVENAL ANTUNES","bairro":"CENTRO","cidade":"Pl\u00e1cido de Castro","idcidade":"13","secoes":[{"secao":"16","votosM":"95","votosE":"43"},{"secao":"17","votosM":"87","votosE":"37"},{"secao":"86","votosM":"98","votosE":"23"},{"secao":"114","votosM":"91","votosE":"36"},{"secao":"138","votosM":"99","votosE":"43"}],"icon":["http://controlemunicipal.tk/assets/img/ic_vermelho.png"],"votosMG":[470],"votosEG":[182]},{"idlocal":"584","local":"ESCOLA JOAO RICARDO - COLEGIO AGRICOLA","coordenadas":"-10.311110, -67.197978","lat":"-10.311110","lng":"-67.197978","coords":"-10.311110,-67.197978","qtdvotos":"233","endereco":"ROD AC 40 KM 03 S\/N","bairro":"ZONA RURAL","cidade":"Pl\u00e1cido de Castro","idcidade":"13","secoes":[{"secao":"23","votosM":"73","votosE":"22"}],"icon":["http://controlemunicipal.tk/assets/img/ic_vermelho.png"],"votosMG":[73],"votosEG":[22]},{"idlocal":"570","local":"ESCOLA JOSE FRANCISCO DA SILVA","coordenadas":"-10.329393, -67.178945","lat":"-10.329393","lng":"-67.178945","coords":"-10.329393,-67.178945","qtdvotos":"1523","endereco":"RUA DOMINGOS GALDINO S\/N","bairro":"CENTRO","cidade":"Pl\u00e1cido de Castro","idcidade":"13","secoes":[{"secao":"2","votosM":"57","votosE":"33"},{"secao":"18","votosM":"61","votosE":"29"},{"secao":"55","votosM":"65","votosE":"27"},{"secao":"76","votosM":"65","votosE":"31"},{"secao":"81","votosM":"57","votosE":"23"},{"secao":"113","votosM":"66","votosE":"26"},{"secao":"128","votosM":"64","votosE":"33"}],"icon":["http://controlemunicipal.tk/assets/img/ic_vermelho.png"],"votosMG":[435],"votosEG":[202]},{"idlocal":"577","local":"ESCOLA JOSE VALMIR","coordenadas":"-10.327301, -67.184087","lat":"-10.327301","lng":"-67.184087","coords":"-10.327301,-67.184087","qtdvotos":"1082","endereco":"RUA OLIMPIO DA SILVA GOMES","bairro":"CENTRO","cidade":"Pl\u00e1cido de Castro","idcidade":"13","secoes":[{"secao":"11","votosM":"61","votosE":"29"},{"secao":"52","votosM":"81","votosE":"45"},{"secao":"75","votosM":"67","votosE":"45"},{"secao":"112","votosM":"78","votosE":"45"}],"icon":["http://controlemunicipal.tk/assets/img/ic_vermelho.png"],"votosMG":[287],"votosEG":[164]},{"idlocal":"586","local":"ESCOLA LIGIA CARVALHO DA SILVA","coordenadas":"-10.321584, -67.189173","lat":"-10.321584","lng":"-67.189173","coords":"-10.321584,-67.189173","qtdvotos":"403","endereco":"ROD. AC 40 - KM 01 S\/N","bairro":"CENTRO","cidade":"Pl\u00e1cido de Castro","idcidade":"13","secoes":[{"secao":"43","votosM":"69","votosE":"28"},{"secao":"61","votosM":"69","votosE":"24"}],"icon":["http://controlemunicipal.tk/assets/img/ic_vermelho.png"],"votosMG":[138],"votosEG":[52]},{"idlocal":"609","local":"ESCOLA MANOEL DE BARROS","coordenadas":"-10.273595, -67.134971","lat":"-10.273595","lng":"-67.134971","coords":"-10.273595,-67.134971","qtdvotos":"298","endereco":"RAMAL NOVO HORIZONTE KM 20","bairro":"ZONA RURAL","cidade":"Pl\u00e1cido de Castro","idcidade":"13","secoes":[{"secao":"151","votosM":"75","votosE":"15"}],"icon":["http://controlemunicipal.tk/assets/img/ic_vermelho.png"],"votosMG":[75],"votosEG":[15]},{"idlocal":"588","local":"ESCOLA MUN INFANTIL CENIRA DOS SANTOS ","coordenadas":"-10.067293, -67.298256","lat":"-10.067293","lng":"-67.298256","coords":"-10.067293,-67.298256","qtdvotos":"562","endereco":"RUA CAETES","bairro":"VILA CAMPINAS","cidade":"Pl\u00e1cido de Castro","idcidade":"13","secoes":[{"secao":"46","votosM":"95","votosE":"42"},{"secao":"66","votosM":"102","votosE":"50"}],"icon":["http://controlemunicipal.tk/assets/img/ic_vermelho.png"],"votosMG":[197],"votosEG":[92]},{"idlocal":"600","local":"ESCOLA MUN JOAO BATISTA LOPES DE LIMA ","coordenadas":"-10.072571, -67.294302","lat":"-10.072571","lng":"-67.294302","coords":"-10.072571,-67.294302","qtdvotos":"759","endereco":"RUA CARIJOS, 1.130","bairro":"VILA CAMPINAS","cidade":"Pl\u00e1cido de Castro","idcidade":"13","secoes":[{"secao":"96","votosM":"71","votosE":"32"},{"secao":"121","votosM":"72","votosE":"44"},{"secao":"173","votosM":"98","votosE":"54"}],"icon":["http://controlemunicipal.tk/assets/img/ic_vermelho.png"],"votosMG":[241],"votosEG":[130]},{"idlocal":"578","local":"ESCOLA SAO LUIZ GONZAGA","coordenadas":"-10.063165, -67.294692","lat":"-10.063165","lng":"-67.294692","coords":"-10.063165,-67.294692","qtdvotos":"1211","endereco":"BR364 KM 60 PAD PEDRO PEIXOTO","bairro":"VILA CAMPINAS","cidade":"Pl\u00e1cido de Castro","idcidade":"13","secoes":[{"secao":"13","votosM":"74","votosE":"34"},{"secao":"14","votosM":"89","votosE":"44"},{"secao":"15","votosM":"82","votosE":"48"},{"secao":"24","votosM":"80","votosE":"38"},{"secao":"202","votosM":"81","votosE":"48"}],"icon":["http://controlemunicipal.tk/assets/img/ic_vermelho.png"],"votosMG":[406],"votosEG":[212]},{"idlocal":"569","local":"SECRETARIA MUNICIPAL DE ACAO SOCIAL","coordenadas":"-10.335008, -67.185030","lat":"-10.335008","lng":"-67.185030","coords":"-10.335008,-67.185030","qtdvotos":"177","endereco":"RUA EPITACIO PESSOA S\/N","bairro":"CENTRO","cidade":"Pl\u00e1cido de Castro","idcidade":"13","secoes":[{"secao":"1","votosM":"57","votosE":"21"}],"icon":["http://controlemunicipal.tk/assets/img/ic_vermelho.png"],"votosMG":[57],"votosEG":[21]},{"idlocal":"611","local":"UNIDADE DE SAUDE MARIO GOMES ","coordenadas":"-10.331857, -67.521277","lat":"-10.331857","lng":"-67.521277","coords":"-10.331857,-67.521277","qtdvotos":"423","endereco":"AC 40 KM 58","bairro":"ZONA RURAL","cidade":"Pl\u00e1cido de Castro","idcidade":"13","secoes":[{"secao":"156, 203, 211","votosM":"142","votosE":"76"}],"icon":["http://controlemunicipal.tk/assets/img/ic_vermelho.png"],"votosMG":[142],"votosEG":[76]}]}